[
    {
        "name": "Slavonski Brod Bosanski Brod",
        "id": "016435b1-5005-4812-83cc-de2318cdba40",
        "geolocation": {
            "lat": 45.14547650000001,
            "lng": 17.9937204
        },
        "found": 1,
        "lvl3-poly": "Not found"
    },
    {
        "name": "Slavonski Brod Centar",
        "id": "1ed48db6-7b8d-42fb-a3bf-249b16168f44",
        "geolocation": {
            "lat": 45.1631431,
            "lng": 18.0116081
        },
        "found": 22,
        "lvl3-poly": "relation/222861"
    },
    {
        "name": "Slavonski Brod Dol",
        "id": "1b594a1b-7226-4cc4-bf0e-ab4207ce4fb2",
        "geolocation": {
            "lat": 45.1631431,
            "lng": 18.0116081
        },
        "found": 1,
        "lvl3-poly": "relation/222861"
    },
    {
        "name": "Slavonski Brod Kolonija",
        "id": "b61e2df7-32fb-47bb-a2a7-cccf610a07da",
        "geolocation": {
            "lat": 45.1734271,
            "lng": 18.0002006
        },
        "found": 2,
        "lvl3-poly": "relation/222861"
    },
    {
        "name": "Slavonski Brod Livada",
        "id": "3173772b-34b8-4664-8930-512602e995cd",
        "geolocation": {
            "lat": 45.1644324,
            "lng": 18.0297047
        },
        "found": 9,
        "lvl3-poly": "relation/222861"
    },
    {
        "name": "Slavonski Brod Mali Pariz",
        "id": "4218fb39-1eef-4ce1-83c4-f453f93d8ebe",
        "geolocation": {
            "lat": 45.16775759999999,
            "lng": 18.0185682
        },
        "found": 5,
        "lvl3-poly": "relation/222861"
    },
    {
        "name": "Slavonski Brod Naselje Andrije Hebranga",
        "id": "8e27408d-345b-4e51-9012-4b398f7ceeb0",
        "geolocation": {
            "lat": 45.1568035,
            "lng": 18.0308978
        },
        "found": 2,
        "lvl3-poly": "relation/222861"
    },
    {
        "name": "Slavonski Brod Budainka",
        "id": "405ea896-aa27-4952-8d1c-5f9aa42ab76e",
        "geolocation": {
            "lat": 45.1721653,
            "lng": 17.9924867
        },
        "found": 5,
        "lvl3-poly": "relation/222861"
    },
    {
        "name": "Slavonski Brod Jelas",
        "id": "057723e2-a383-4da4-8271-dc53a360f490",
        "geolocation": {
            "lat": 45.1633175,
            "lng": 17.9973298
        },
        "found": 4,
        "lvl3-poly": "relation/222861"
    },
    {
        "name": "Slavonski Brod Marsonija",
        "id": "b373a8bb-7e9c-428e-b430-930f30f60be2",
        "geolocation": {
            "lat": 45.1631431,
            "lng": 18.0116081
        },
        "found": 1,
        "lvl3-poly": "relation/222861"
    },
    {
        "name": "Slavonski Brod Mikrorajon",
        "id": "090bbcec-b51e-43ac-b0c4-68dacc8821c5",
        "geolocation": {
            "lat": 45.1477924,
            "lng": 18.0359873
        },
        "found": 1,
        "lvl3-poly": "relation/222861"
    },
    {
        "name": "Slavonski Brod Slavonija 2",
        "id": "5b2645fc-47e0-4d63-983c-0bbf2e568687",
        "geolocation": {
            "lat": 45.1610103,
            "lng": 18.0204917
        },
        "found": 1,
        "lvl3-poly": "relation/222861"
    },
    {
        "name": "Slavonski Brod Naselje Zrinski-Frankopana",
        "id": "ac0ac900-9c2b-483c-ad66-d6ebea5c762b",
        "geolocation": {
            "lat": 45.1779794,
            "lng": 18.021984
        },
        "found": 5,
        "lvl3-poly": "relation/222861"
    },
    {
        "name": "Slavonski Brod Plavo Polje",
        "id": "7143e533-8217-4c7f-8565-3ad0440b5d6e",
        "geolocation": {
            "lat": 45.1595829,
            "lng": 18.0056263
        },
        "found": 1,
        "lvl3-poly": "relation/222861"
    },
    {
        "name": "Blato Blato",
        "id": "0699d008-4660-4e86-bb15-74a1c237e5f7",
        "geolocation": {
            "lat": 42.9393916,
            "lng": 16.7918946
        },
        "found": 1,
        "lvl3-poly": "relation/226750"
    },
    {
        "name": "Blato Prigradica",
        "id": "5c8a9b7f-6525-456b-95f3-368aa746cddd",
        "geolocation": {
            "lat": 42.965486,
            "lng": 16.8118798
        },
        "found": 1,
        "lvl3-poly": "relation/226750"
    },
    {
        "name": "Blato Prižba",
        "id": "02385c35-78e9-444d-a943-75c179ac24c3",
        "geolocation": {
            "lat": 42.9074457,
            "lng": 16.7938388
        },
        "found": 1,
        "lvl3-poly": "relation/226750"
    },
    {
        "name": "Dubrovačko Primorje Podgora",
        "id": "0ff4bfea-b3f7-48bb-b1c0-00434bd1231c",
        "geolocation": {
            "lat": 42.83931949999999,
            "lng": 17.8452905
        },
        "found": 11,
        "lvl3-poly": "relation/226750"
    },
    {
        "name": "Dubrovnik Babin kuk",
        "id": "299e6a01-0acd-4f76-9b9b-b38a0992be42",
        "geolocation": {
            "lat": 42.6606107,
            "lng": 18.0746859
        },
        "found": 1,
        "lvl3-poly": "relation/226750"
    },
    {
        "name": "Dubrovnik Boninovo",
        "id": "dc0cc940-2d08-4915-ae1c-53616e9589e8",
        "geolocation": {
            "lat": 42.6466188,
            "lng": 18.0959258
        },
        "found": 5,
        "lvl3-poly": "relation/226750"
    },
    {
        "name": "Dubrovnik Gorica",
        "id": "8ae7f74e-12f0-43b2-9cc9-b35be97c7a3d",
        "geolocation": {
            "lat": 42.64515129999999,
            "lng": 18.089193
        },
        "found": 1,
        "lvl3-poly": "relation/226750"
    },
    {
        "name": "Dubrovnik Gornji Kono",
        "id": "f9b5244b-7d04-438f-8f5f-802f98a961ce",
        "geolocation": {
            "lat": 42.6492083,
            "lng": 18.1002438
        },
        "found": 3,
        "lvl3-poly": "relation/226750"
    },
    {
        "name": "Dubrovnik Gruž",
        "id": "4862b455-eb0e-478a-a307-168e4fe5728c",
        "geolocation": {
            "lat": 42.6592914,
            "lng": 18.0875127
        },
        "found": 16,
        "lvl3-poly": "relation/226750"
    },
    {
        "name": "Dubrovnik Gruž - Luka",
        "id": "2f21ccb1-a474-48ab-adb5-630b02fcde17",
        "geolocation": {
            "lat": 42.6613889,
            "lng": 18.0813889
        },
        "found": 2,
        "lvl3-poly": "relation/226750"
    },
    {
        "name": "Dubrovnik Hladnica",
        "id": "ea8a71a9-eba2-4dbd-9d3d-a86dc53c941e",
        "geolocation": {
            "lat": 42.6473976,
            "lng": 18.0824644
        },
        "found": 2,
        "lvl3-poly": "relation/226750"
    },
    {
        "name": "Dubrovnik Lapad",
        "id": "41cc314d-511a-45db-85c1-e4535de03f14",
        "geolocation": {
            "lat": 42.65388069999999,
            "lng": 18.0779145
        },
        "found": 10,
        "lvl3-poly": "relation/226750"
    },
    {
        "name": "Dubrovnik Montovjerna",
        "id": "83c960e1-4e0a-4e96-b935-14d0ae139f0a",
        "geolocation": {
            "lat": 42.6484927,
            "lng": 18.0855519
        },
        "found": 1,
        "lvl3-poly": "relation/226750"
    },
    {
        "name": "Dubrovnik Nuncijata",
        "id": "f3a0815d-6572-4a34-81a5-9bd7a23c6337",
        "geolocation": {
            "lat": 42.6627653,
            "lng": 18.0877235
        },
        "found": 1,
        "lvl3-poly": "relation/226750"
    },
    {
        "name": "Dubrovnik Pile",
        "id": "50400c8e-5f0d-47b1-aaa2-592a880fe027",
        "geolocation": {
            "lat": 42.6422283,
            "lng": 18.1057493
        },
        "found": 3,
        "lvl3-poly": "relation/226750"
    },
    {
        "name": "Dubrovnik Ploče",
        "id": "14eccdef-6347-47bc-bf2d-8211546421e4",
        "geolocation": {
            "lat": 42.6430659,
            "lng": 18.1143261
        },
        "found": 9,
        "lvl3-poly": "relation/226750"
    },
    {
        "name": "Dubrovnik Srednji Kono",
        "id": "d6a41782-6c29-49e9-a938-f9ab06a6990c",
        "geolocation": {
            "lat": 42.6436709,
            "lng": 18.1064237
        },
        "found": 1,
        "lvl3-poly": "relation/226750"
    },
    {
        "name": "Dubrovnik Stari grad",
        "id": "98f2b23d-1e16-48a3-8425-a9d4cdd3ee15",
        "geolocation": {
            "lat": 42.6417647,
            "lng": 18.1083831
        },
        "found": 10,
        "lvl3-poly": "relation/226750"
    },
    {
        "name": "Dubrovnik - Okolica Dubravica",
        "id": "50926f9c-130e-4bcc-806a-5896ffeda14d",
        "geolocation": {
            "lat": 42.7450254,
            "lng": 17.9399248
        },
        "found": 1,
        "lvl3-poly": "relation/226750"
    },
    {
        "name": "Dubrovnik - Okolica Lozica",
        "id": "50cc39a1-b9b1-47ee-aee9-a9fa7f17e78f",
        "geolocation": {
            "lat": 42.6719185,
            "lng": 18.0699433
        },
        "found": 4,
        "lvl3-poly": "relation/226750"
    },
    {
        "name": "Dubrovnik - Okolica Mokošica",
        "id": "3d2edd4f-4646-482f-975f-6d1f4a472f2e",
        "geolocation": {
            "lat": 42.6747679,
            "lng": 18.092449
        },
        "found": 3,
        "lvl3-poly": "relation/226750"
    },
    {
        "name": "Dubrovnik - Okolica Nova Mokošica",
        "id": "7ccddece-593e-467d-83d9-a928d7826c86",
        "geolocation": {
            "lat": 42.6742884,
            "lng": 18.1168132
        },
        "found": 4,
        "lvl3-poly": "relation/226750"
    },
    {
        "name": "Dubrovnik - Okolica Orašac",
        "id": "bc92d776-60b1-4068-9e87-be4f96b28b30",
        "geolocation": {
            "lat": 42.7035292,
            "lng": 18.0067991
        },
        "found": 1,
        "lvl3-poly": "relation/226750"
    },
    {
        "name": "Dubrovnik - Okolica Rožat",
        "id": "ff39b476-d6c6-42f4-8643-b5d7c222563a",
        "geolocation": {
            "lat": 42.6728918,
            "lng": 18.1291906
        },
        "found": 2,
        "lvl3-poly": "relation/226750"
    },
    {
        "name": "Dubrovnik - Okolica Zaton",
        "id": "3e707cb8-692a-4ef4-8d7f-6478b3f5b9d0",
        "geolocation": {
            "lat": 42.6901286,
            "lng": 18.0398923
        },
        "found": 28,
        "lvl3-poly": "relation/226750"
    },
    {
        "name": "Konavle Cavtat",
        "id": "3ac2ee58-1226-4784-ac7c-3fb775d3566f",
        "geolocation": {
            "lat": 42.5812683,
            "lng": 18.2175941
        },
        "found": 36,
        "lvl3-poly": "relation/226750"
    },
    {
        "name": "Konavle Čilipi",
        "id": "f72aeeda-a74b-4c8c-97b2-27c89e42b18b",
        "geolocation": {
            "lat": 42.5480604,
            "lng": 18.281085
        },
        "found": 4,
        "lvl3-poly": "relation/226750"
    },
    {
        "name": "Konavle Drvenik",
        "id": "12669109-04c2-4eda-a071-f631e9567732",
        "geolocation": {
            "lat": 42.5684681,
            "lng": 18.3141631
        },
        "found": 14,
        "lvl3-poly": "relation/226750"
    },
    {
        "name": "Konavle Gruda",
        "id": "b0bea1af-f0a3-4692-b186-ee9dd9e78b3f",
        "geolocation": {
            "lat": 42.5176369,
            "lng": 18.3713844
        },
        "found": 4,
        "lvl3-poly": "relation/226750"
    },
    {
        "name": "Konavle Zvekovica",
        "id": "bde9ab03-acc2-4a31-9827-f79a4ccaf3b8",
        "geolocation": {
            "lat": 42.5762101,
            "lng": 18.2424217
        },
        "found": 6,
        "lvl3-poly": "relation/226750"
    },
    {
        "name": "Korčula Korčula",
        "id": "6dda04b6-2dfe-49c3-8ec4-5cc0a7a53e53",
        "geolocation": {
            "lat": 42.9584041,
            "lng": 17.1342309
        },
        "found": 17,
        "lvl3-poly": "relation/226750"
    },
    {
        "name": "Korčula Račišće",
        "id": "9bfbdf03-880a-49c4-adee-59445dd54e71",
        "geolocation": {
            "lat": 42.9727403,
            "lng": 17.0217344
        },
        "found": 2,
        "lvl3-poly": "relation/226750"
    },
    {
        "name": "Korčula Žrnovo",
        "id": "33c22e1a-53dc-45bc-905b-cb64a7db1116",
        "geolocation": {
            "lat": 42.9428145,
            "lng": 17.1104161
        },
        "found": 15,
        "lvl3-poly": "relation/226750"
    },
    {
        "name": "Metković Metković",
        "id": "8b658438-be4f-4de0-874e-f43866f60588",
        "geolocation": {
            "lat": 43.05328009999999,
            "lng": 17.6493431
        },
        "found": 3,
        "lvl3-poly": "relation/226750"
    },
    {
        "name": "Opuzen Opuzen",
        "id": "befa220f-c023-4cbc-a8ea-952bea6c2b29",
        "geolocation": {
            "lat": 43.0172612,
            "lng": 17.5644335
        },
        "found": 2,
        "lvl3-poly": "relation/226750"
    },
    {
        "name": "Orebić Orebić",
        "id": "e4b295e1-f020-4d0d-b6bf-93c36d6cb822",
        "geolocation": {
            "lat": 42.9757655,
            "lng": 17.1778637
        },
        "found": 20,
        "lvl3-poly": "relation/226750"
    },
    {
        "name": "Orebić Trstenik",
        "id": "f37f03e3-68c4-4ea2-9889-a7659fb750e3",
        "geolocation": {
            "lat": 42.9177873,
            "lng": 17.3995938
        },
        "found": 1,
        "lvl3-poly": "relation/226750"
    },
    {
        "name": "Ploče Baćina",
        "id": "c7af537c-67e0-41e9-a967-accfa4ac7acf",
        "geolocation": {
            "lat": 43.0812325,
            "lng": 17.3887628
        },
        "found": 25,
        "lvl3-poly": "relation/226750"
    },
    {
        "name": "Ploče Ploče",
        "id": "cb616c3b-e250-4147-9a58-804119e60841",
        "geolocation": {
            "lat": 43.0563106,
            "lng": 17.4310249
        },
        "found": 1,
        "lvl3-poly": "relation/226750"
    },
    {
        "name": "Slivno Duba",
        "id": "6c57ed23-e361-491e-abf9-cb9629c51a53",
        "geolocation": {
            "lat": 42.9778185,
            "lng": 17.4957842
        },
        "found": 3,
        "lvl3-poly": "relation/226750"
    },
    {
        "name": "Slivno Komarna",
        "id": "92aed97b-c0eb-434d-907e-6b13413859ed",
        "geolocation": {
            "lat": 42.9453313,
            "lng": 17.5330586
        },
        "found": 13,
        "lvl3-poly": "relation/226750"
    },
    {
        "name": "Slivno Zavala",
        "id": "09232f76-90cd-4122-a98a-23ece94f892f",
        "geolocation": {
            "lat": 42.95037749999999,
            "lng": 17.5836735
        },
        "found": 4,
        "lvl3-poly": "relation/226750"
    },
    {
        "name": "Ston Hodilje",
        "id": "af7eba76-b23d-4493-9690-a8f435597030",
        "geolocation": {
            "lat": 42.8569517,
            "lng": 17.689407
        },
        "found": 1,
        "lvl3-poly": "relation/226750"
    },
    {
        "name": "Ston Ston",
        "id": "540dbc22-a189-48a3-8ba0-daded21c02b2",
        "geolocation": {
            "lat": 42.8386685,
            "lng": 17.6963235
        },
        "found": 1,
        "lvl3-poly": "relation/226750"
    },
    {
        "name": "Vela Luka Vela Luka",
        "id": "bc779781-031a-4ce7-8fb5-09699c21322d",
        "geolocation": {
            "lat": 42.9592365,
            "lng": 16.7191104
        },
        "found": 18,
        "lvl3-poly": "relation/226750"
    },
    {
        "name": "Župa Dubrovačka Čibača",
        "id": "82f2ef16-1b79-4529-976a-3db5ef7a0152",
        "geolocation": {
            "lat": 42.6271381,
            "lng": 18.1763053
        },
        "found": 3,
        "lvl3-poly": "relation/226750"
    },
    {
        "name": "Župa Dubrovačka Mlini",
        "id": "c4891c89-bbe7-45a3-9bd0-d600a9bd49ff",
        "geolocation": {
            "lat": 42.6227599,
            "lng": 18.2078035
        },
        "found": 12,
        "lvl3-poly": "relation/226750"
    },
    {
        "name": "Župa Dubrovačka Soline",
        "id": "6e40dcb3-3f60-4aec-be3c-44f8e5ec675b",
        "geolocation": {
            "lat": 42.6154255,
            "lng": 18.218052
        },
        "found": 2,
        "lvl3-poly": "relation/226750"
    },
    {
        "name": "Župa Dubrovačka Srebreno",
        "id": "e7668dfe-6098-4a89-ad90-5a8ab92d0a10",
        "geolocation": {
            "lat": 42.6237489,
            "lng": 18.1976116
        },
        "found": 1,
        "lvl3-poly": "relation/226750"
    },
    {
        "name": "Brezovica Brezovica",
        "id": "d288b5e5-f7e8-4010-9678-5a09a1375127",
        "geolocation": {
            "lat": 45.7292368,
            "lng": 15.9106398
        },
        "found": 3,
        "lvl3-poly": "relation/226224"
    },
    {
        "name": "Črnomerec Bijenik",
        "id": "cf95fc2a-a322-4952-877a-2295d621eeed",
        "geolocation": {
            "lat": 45.8395008,
            "lng": 15.9356813
        },
        "found": 35,
        "lvl3-poly": "relation/226224"
    },
    {
        "name": "Črnomerec Črnomerec",
        "id": "0c628b2e-0073-40e8-a466-6f77cd8abf42",
        "geolocation": {
            "lat": 45.8134387,
            "lng": 15.9421066
        },
        "found": 264,
        "lvl3-poly": "relation/226224"
    },
    {
        "name": "Črnomerec Fraterščica",
        "id": "4db96749-16e8-4713-b884-8c692fae35ec",
        "geolocation": {
            "lat": 45.8302082,
            "lng": 15.9310453
        },
        "found": 4,
        "lvl3-poly": "relation/226224"
    },
    {
        "name": "Črnomerec Gornje Vrapče",
        "id": "7f3f4669-1d6b-4b41-9381-8fc95f5b33be",
        "geolocation": {
            "lat": 45.842992,
            "lng": 15.899857
        },
        "found": 21,
        "lvl3-poly": "relation/226224"
    },
    {
        "name": "Črnomerec Jelenovac",
        "id": "23402ad3-d8d9-497f-b54b-1e5777de5f30",
        "geolocation": {
            "lat": 45.8274847,
            "lng": 15.9526748
        },
        "found": 21,
        "lvl3-poly": "relation/226224"
    },
    {
        "name": "Črnomerec Kustošija",
        "id": "082cd289-9790-440d-8566-f630f0a1f155",
        "geolocation": {
            "lat": 45.80387790782571,
            "lng": 15.92761663587486
        },
        "found": 63,
        "lvl3-poly": "relation/226224"
    },
    {
        "name": "Črnomerec Mikulići",
        "id": "d589284e-2110-4792-a32d-bca4b18fc495",
        "geolocation": {
            "lat": 45.845964,
            "lng": 15.928966
        },
        "found": 24,
        "lvl3-poly": "relation/226224"
    },
    {
        "name": "Črnomerec Sveti Duh",
        "id": "33db79cf-b56b-4add-a3e8-5b6dd6e25de0",
        "geolocation": {
            "lat": 45.8291773,
            "lng": 15.939427
        },
        "found": 56,
        "lvl3-poly": "relation/226224"
    },
    {
        "name": "Črnomerec Šestinski dol",
        "id": "265df7d1-3011-4fc6-b407-e1c67d58202d",
        "geolocation": {
            "lat": 45.8267212,
            "lng": 15.9442311
        },
        "found": 29,
        "lvl3-poly": "relation/226224"
    },
    {
        "name": "Črnomerec Vrhovec",
        "id": "5a893ba0-61d2-4573-9e28-8a3b3405808b",
        "geolocation": {
            "lat": 45.8288321,
            "lng": 15.9486498
        },
        "found": 30,
        "lvl3-poly": "relation/226224"
    },
    {
        "name": "Črnomerec Završje",
        "id": "33559db7-1866-4550-a563-7b68e33400b0",
        "geolocation": {
            "lat": 45.8324202,
            "lng": 15.9169816
        },
        "found": 1,
        "lvl3-poly": "relation/226224"
    },
    {
        "name": "Donja Dubrava Čulinec",
        "id": "ce301634-bd99-4025-a00d-ddbb4821130a",
        "geolocation": {
            "lat": 45.8207676,
            "lng": 16.0633854
        },
        "found": 12,
        "lvl3-poly": "relation/226224"
    },
    {
        "name": "Donja Dubrava Donja Dubrava",
        "id": "70e1ce97-a7b3-44bc-b7b2-4a3f44b687ce",
        "geolocation": {
            "lat": 46.31681380000001,
            "lng": 16.8105793
        },
        "found": 146,
        "lvl3-poly": "relation/224183"
    },
    {
        "name": "Donja Dubrava Dubrava",
        "id": "d7f06140-2be2-46b2-aaf8-510fc75ac36d",
        "geolocation": {
            "lat": 45.8306017,
            "lng": 16.0573476
        },
        "found": 23,
        "lvl3-poly": "relation/226224"
    },
    {
        "name": "Donja Dubrava Resnički gaj",
        "id": "4b5355a0-0daa-4ba6-952f-3fe8ff642474",
        "geolocation": {
            "lat": 45.8113783,
            "lng": 16.0638445
        },
        "found": 2,
        "lvl3-poly": "relation/226224"
    },
    {
        "name": "Donja Dubrava Retkovec",
        "id": "59f84464-e759-4a57-aa08-ec830e505b8e",
        "geolocation": {
            "lat": 45.8263454,
            "lng": 16.0685015
        },
        "found": 43,
        "lvl3-poly": "relation/226224"
    },
    {
        "name": "Donja Dubrava Trnava",
        "id": "e68b8587-513b-4cbd-a2fe-66ea998a1706",
        "geolocation": {
            "lat": 45.818509,
            "lng": 16.0493918
        },
        "found": 33,
        "lvl3-poly": "relation/226224"
    },
    {
        "name": "Donji Grad Donji grad",
        "id": "1e76752b-4c3d-4427-8893-fdd0e566db74",
        "geolocation": {
            "lat": 45.8100192,
            "lng": 15.9880513
        },
        "found": 926,
        "lvl3-poly": "relation/226224"
    },
    {
        "name": "Donji Grad Kvaternikov Trg",
        "id": "5ef8e574-48bd-4d0d-ab3b-02cd76505d3a",
        "geolocation": {
            "lat": 45.8144699,
            "lng": 15.9974661
        },
        "found": 3,
        "lvl3-poly": "relation/226224"
    },
    {
        "name": "Gornja Dubrava Branovec",
        "id": "9230cab1-86aa-4e14-b47b-2f60cf505a24",
        "geolocation": {
            "lat": 45.85714400000001,
            "lng": 16.074299
        },
        "found": 1,
        "lvl3-poly": "relation/226224"
    },
    {
        "name": "Gornja Dubrava Dubec",
        "id": "2588976c-53bf-4130-a634-c25b85c6befa",
        "geolocation": {
            "lat": 45.828008,
            "lng": 16.077699
        },
        "found": 5,
        "lvl3-poly": "relation/226224"
    },
    {
        "name": "Gornja Dubrava Čučerje",
        "id": "f974ec41-ddb5-4941-aa71-1a57bd23facc",
        "geolocation": {
            "lat": 45.89379,
            "lng": 16.059894
        },
        "found": 2,
        "lvl3-poly": "relation/226224"
    },
    {
        "name": "Gornja Dubrava Dankovec",
        "id": "e4ec7704-6648-4076-8fe7-33b8fa2d5518",
        "geolocation": {
            "lat": 45.872924,
            "lng": 16.057036
        },
        "found": 2,
        "lvl3-poly": "relation/226224"
    },
    {
        "name": "Gornja Dubrava Gornja Dubrava",
        "id": "3387a6ef-69d9-4585-aa9a-9b9528fa819e",
        "geolocation": {
            "lat": 45.8330435,
            "lng": 16.0400674
        },
        "found": 125,
        "lvl3-poly": "relation/226224"
    },
    {
        "name": "Gornja Dubrava Gornji Slanovec",
        "id": "f40bd66e-9621-4d67-953d-ee2c1ee2e8b3",
        "geolocation": {
            "lat": 45.871905,
            "lng": 16.056375
        },
        "found": 1,
        "lvl3-poly": "relation/226224"
    },
    {
        "name": "Gornja Dubrava Grad mladih",
        "id": "57484a4a-4685-4b7d-b6f7-bc16d7781329",
        "geolocation": {
            "lat": 45.8545029,
            "lng": 16.0517134
        },
        "found": 1,
        "lvl3-poly": "relation/226224"
    },
    {
        "name": "Gornja Dubrava Grana",
        "id": "02ed9031-ec8c-46fd-81d0-75b03955061a",
        "geolocation": {
            "lat": 45.8330435,
            "lng": 16.0400674
        },
        "found": 1,
        "lvl3-poly": "relation/226224"
    },
    {
        "name": "Gornja Dubrava Granešina",
        "id": "809e47ab-7d97-4553-8f79-17b0a3aa19bc",
        "geolocation": {
            "lat": 45.8500773,
            "lng": 16.0501582
        },
        "found": 17,
        "lvl3-poly": "relation/226224"
    },
    {
        "name": "Gornja Dubrava Klaka",
        "id": "6d4e01d9-874c-40f2-9450-8ec19ce572da",
        "geolocation": {
            "lat": 45.8386058,
            "lng": 16.054403
        },
        "found": 12,
        "lvl3-poly": "relation/226224"
    },
    {
        "name": "Gornja Dubrava Mihovci",
        "id": "6d6f8430-4f61-4c13-a97f-a047a2b87e4e",
        "geolocation": {
            "lat": 45.8795905,
            "lng": 16.0510742
        },
        "found": 1,
        "lvl3-poly": "relation/226224"
    },
    {
        "name": "Gornja Dubrava Novaki",
        "id": "e159b102-d412-47de-b287-86d3cc3d8a60",
        "geolocation": {
            "lat": 45.8417323,
            "lng": 16.5524815
        },
        "found": 10,
        "lvl3-poly": "relation/226241"
    },
    {
        "name": "Gornja Dubrava Novoselec",
        "id": "c5bac9bf-128d-4bbb-afe3-9c5b90624335",
        "geolocation": {
            "lat": 45.85218099999999,
            "lng": 16.082228
        },
        "found": 1,
        "lvl3-poly": "relation/226224"
    },
    {
        "name": "Gornja Dubrava Oporovec",
        "id": "25573dc1-84b7-4643-ad8e-d9c719121d84",
        "geolocation": {
            "lat": 45.85199799999999,
            "lng": 16.055596
        },
        "found": 10,
        "lvl3-poly": "relation/226224"
    },
    {
        "name": "Gornja Dubrava Poljanice",
        "id": "aba35fe0-9c3b-4cf6-86a8-e727f51d3509",
        "geolocation": {
            "lat": 45.8300043,
            "lng": 16.0691322
        },
        "found": 8,
        "lvl3-poly": "relation/226224"
    },
    {
        "name": "Gornja Dubrava Studentski grad",
        "id": "57c27c92-c952-4c9c-a4d6-f5f37ee7aaf9",
        "geolocation": {
            "lat": 45.838067,
            "lng": 16.06146
        },
        "found": 11,
        "lvl3-poly": "relation/226224"
    },
    {
        "name": "Gornja Dubrava Trnovčica",
        "id": "53efbe44-196b-47aa-8d38-2dd9b60f01ad",
        "geolocation": {
            "lat": 45.8350954,
            "lng": 16.0686468
        },
        "found": 4,
        "lvl3-poly": "relation/226224"
    },
    {
        "name": "Gornji Grad - Medveščak Britanac",
        "id": "a4c96815-efd3-490e-bdbd-dae9f525dfb5",
        "geolocation": {
            "lat": 45.8131309,
            "lng": 15.9650128
        },
        "found": 28,
        "lvl3-poly": "relation/226224"
    },
    {
        "name": "Gornji Grad - Medveščak Centar",
        "id": "645ea1d0-c059-4ec2-8b40-f91131f23dd2",
        "geolocation": {
            "lat": 45.8147052,
            "lng": 15.9733762
        },
        "found": 129,
        "lvl3-poly": "relation/226224"
    },
    {
        "name": "Gornji Grad - Medveščak Dolac",
        "id": "a85170f1-bdac-4127-81a3-384a72393c7a",
        "geolocation": {
            "lat": 45.8139846,
            "lng": 15.9775104
        },
        "found": 2,
        "lvl3-poly": "relation/226224"
    },
    {
        "name": "Gornji Grad - Medveščak Gornji grad",
        "id": "7fca91ea-98f1-4915-a74d-14741353c123",
        "geolocation": {
            "lat": 45.8147052,
            "lng": 15.9733762
        },
        "found": 23,
        "lvl3-poly": "relation/226224"
    },
    {
        "name": "Gornji Grad - Medveščak Gupčeva zvijezda",
        "id": "40a1ea0e-5af9-4407-85a4-3907e8ceda5e",
        "geolocation": {
            "lat": 45.8280696,
            "lng": 15.9793355
        },
        "found": 6,
        "lvl3-poly": "relation/226224"
    },
    {
        "name": "Gornji Grad - Medveščak Kaptol",
        "id": "e6897cbe-9efd-4e19-a73e-c80dfd0c3b44",
        "geolocation": {
            "lat": 45.8161941,
            "lng": 15.978411
        },
        "found": 18,
        "lvl3-poly": "relation/226224"
    },
    {
        "name": "Gornji Grad - Medveščak Kraljevec",
        "id": "3631187b-e81b-41ef-a9b3-5892a61a9870",
        "geolocation": {
            "lat": 45.8337591,
            "lng": 15.9681794
        },
        "found": 3,
        "lvl3-poly": "relation/226224"
    },
    {
        "name": "Gornji Grad - Medveščak Ksaver",
        "id": "c32d48eb-7a9a-49ac-a307-86ca8cb6daef",
        "geolocation": {
            "lat": 45.8313822,
            "lng": 15.9769937
        },
        "found": 7,
        "lvl3-poly": "relation/226224"
    },
    {
        "name": "Gornji Grad - Medveščak Medveščak",
        "id": "c3dceefe-04ff-4f15-af07-5c222fa780a3",
        "geolocation": {
            "lat": 45.8147052,
            "lng": 15.9733762
        },
        "found": 46,
        "lvl3-poly": "relation/226224"
    },
    {
        "name": "Gornji Grad - Medveščak Pantovčak",
        "id": "888395ad-d5a7-4898-8f93-b7c7aecfef5d",
        "geolocation": {
            "lat": 45.8294889,
            "lng": 15.9615761
        },
        "found": 38,
        "lvl3-poly": "relation/226224"
    },
    {
        "name": "Gornji Grad - Medveščak Prekrižje",
        "id": "b83af92e-7667-45a5-be91-c233017803ee",
        "geolocation": {
            "lat": 45.8426149,
            "lng": 15.9635246
        },
        "found": 4,
        "lvl3-poly": "relation/226224"
    },
    {
        "name": "Gornji Grad - Medveščak Ribnjak",
        "id": "b5832622-d572-4327-bcbb-46330093c7c7",
        "geolocation": {
            "lat": 45.8194249,
            "lng": 15.9831026
        },
        "found": 15,
        "lvl3-poly": "relation/226224"
    },
    {
        "name": "Gornji Grad - Medveščak Šalata",
        "id": "b58e51a7-5ab8-4446-bcfc-d62d89cf80d4",
        "geolocation": {
            "lat": 45.8208084,
            "lng": 15.9865622
        },
        "found": 41,
        "lvl3-poly": "relation/226224"
    },
    {
        "name": "Gornji Grad - Medveščak Tuškanac",
        "id": "73d381a6-a7f7-42d2-9e89-81669716094d",
        "geolocation": {
            "lat": 45.8211423,
            "lng": 15.9697112
        },
        "found": 12,
        "lvl3-poly": "relation/226224"
    },
    {
        "name": "Gornji Grad - Medveščak Voćarsko naselje",
        "id": "43c61c1f-30cc-4f9d-9f0c-39c1ba0457f4",
        "geolocation": {
            "lat": 45.8176409,
            "lng": 15.9872499
        },
        "found": 1,
        "lvl3-poly": "relation/226224"
    },
    {
        "name": "Gornji Grad - Medveščak Zelengaj",
        "id": "8ee63663-469b-4c4f-9f85-4bd31100c23e",
        "geolocation": {
            "lat": 45.8268042,
            "lng": 15.9662539
        },
        "found": 6,
        "lvl3-poly": "relation/226224"
    },
    {
        "name": "Maksimir Donji Bukovac",
        "id": "5ea3036d-d0c7-4943-99c6-b0ff3d75f5d2",
        "geolocation": {
            "lat": 45.8421642,
            "lng": 16.0120421
        },
        "found": 29,
        "lvl3-poly": "relation/226224"
    },
    {
        "name": "Maksimir Gornji Bukovac",
        "id": "0a6078b4-33bf-4fa0-9f7f-a3559b11c835",
        "geolocation": {
            "lat": 45.8421642,
            "lng": 16.0120421
        },
        "found": 83,
        "lvl3-poly": "relation/226224"
    },
    {
        "name": "Maksimir Laščina",
        "id": "4d4b588a-c57f-4e93-a63a-44400786b47d",
        "geolocation": {
            "lat": 45.8215719,
            "lng": 16.0004597
        },
        "found": 43,
        "lvl3-poly": "relation/226224"
    },
    {
        "name": "Maksimir Maksimir",
        "id": "38ed477a-98c7-4aaa-8df2-d34abb89d37b",
        "geolocation": {
            "lat": 45.8187892,
            "lng": 16.0130628
        },
        "found": 463,
        "lvl3-poly": "relation/226224"
    },
    {
        "name": "Maksimir Ravnice",
        "id": "4cd881a9-308f-4a3a-a8dd-fd04377dff74",
        "geolocation": {
            "lat": 45.8209366,
            "lng": 16.0285687
        },
        "found": 17,
        "lvl3-poly": "relation/226224"
    },
    {
        "name": "Maksimir Remete",
        "id": "ecf313f5-851e-47b8-9653-b1f537c2417e",
        "geolocation": {
            "lat": 45.847206,
            "lng": 16.0021158
        },
        "found": 113,
        "lvl3-poly": "relation/226224"
    },
    {
        "name": "Maksimir Srebrnjak",
        "id": "5e5a9e18-a0a0-4fb8-95a7-2be07641fca0",
        "geolocation": {
            "lat": 45.8250431,
            "lng": 15.9928662
        },
        "found": 52,
        "lvl3-poly": "relation/226224"
    },
    {
        "name": "Maksimir Svetice",
        "id": "05f18e5e-6bce-4a74-9167-f6bd69329a34",
        "geolocation": {
            "lat": 45.8153186,
            "lng": 16.0131794
        },
        "found": 11,
        "lvl3-poly": "relation/226224"
    },
    {
        "name": "Novi Zagreb - Istok Bundek",
        "id": "3a9f59be-3f82-425c-8796-474fa8393e55",
        "geolocation": {
            "lat": 45.7853775,
            "lng": 15.9872189
        },
        "found": 5,
        "lvl3-poly": "relation/226224"
    },
    {
        "name": "Novi Zagreb - Istok Buzin",
        "id": "2f12c31d-bb8d-4d84-bdf0-c46a02632236",
        "geolocation": {
            "lat": 45.7485022,
            "lng": 15.9950579
        },
        "found": 6,
        "lvl3-poly": "relation/226224"
    },
    {
        "name": "Novi Zagreb - Istok Dugave",
        "id": "2a598a40-eb3e-40f0-b9e2-1189ed4becee",
        "geolocation": {
            "lat": 45.7644495,
            "lng": 15.9973799
        },
        "found": 46,
        "lvl3-poly": "relation/226224"
    },
    {
        "name": "Novi Zagreb - Istok Hrelić",
        "id": "85b4a03e-0335-4312-817a-b316d2a29d92",
        "geolocation": {
            "lat": 45.7701047,
            "lng": 16.0180359
        },
        "found": 2,
        "lvl3-poly": "relation/226224"
    },
    {
        "name": "Novi Zagreb - Istok Jakuševec",
        "id": "633f2f4a-d287-4a54-8458-d4cab56141f9",
        "geolocation": {
            "lat": 45.7701047,
            "lng": 16.0180359
        },
        "found": 21,
        "lvl3-poly": "relation/226224"
    },
    {
        "name": "Novi Zagreb - Istok Kamenarka",
        "id": "57927bd3-3814-4f7f-892d-3164fcc3c5c3",
        "geolocation": {
            "lat": 45.7645533,
            "lng": 16.0102095
        },
        "found": 6,
        "lvl3-poly": "relation/226224"
    },
    {
        "name": "Novi Zagreb - Istok Sloboština",
        "id": "9771c23f-ca75-43c2-addd-0cb6a9ec76e5",
        "geolocation": {
            "lat": 45.7655995,
            "lng": 15.9883966
        },
        "found": 10,
        "lvl3-poly": "relation/226224"
    },
    {
        "name": "Novi Zagreb - Istok Sopot",
        "id": "26b5d244-8b6f-4443-a9b9-b8ea02cfffe0",
        "geolocation": {
            "lat": 45.7756149,
            "lng": 15.9853888
        },
        "found": 16,
        "lvl3-poly": "relation/226224"
    },
    {
        "name": "Novi Zagreb - Istok Središće",
        "id": "6930f7ab-e591-4200-8355-339cef56b704",
        "geolocation": {
            "lat": 45.7805494,
            "lng": 15.9848699
        },
        "found": 6,
        "lvl3-poly": "relation/226224"
    },
    {
        "name": "Novi Zagreb - Istok Travno",
        "id": "46b0742c-da5f-4077-8948-6deb045fb223",
        "geolocation": {
            "lat": 45.768909,
            "lng": 15.9982781
        },
        "found": 28,
        "lvl3-poly": "relation/226224"
    },
    {
        "name": "Novi Zagreb - Istok Utrina",
        "id": "3ff1669c-0e0e-4b8e-a0e8-f6c7aaf01dcd",
        "geolocation": {
            "lat": 45.7765314,
            "lng": 15.9959558
        },
        "found": 29,
        "lvl3-poly": "relation/226224"
    },
    {
        "name": "Novi Zagreb - Istok Veliko Polje",
        "id": "edb60ac9-2707-49df-8a62-9e5caae8a598",
        "geolocation": {
            "lat": 45.7358415,
            "lng": 16.0170158
        },
        "found": 14,
        "lvl3-poly": "relation/226224"
    },
    {
        "name": "Novi Zagreb - Istok Zapruđe",
        "id": "779f3904-f828-4bca-b7c7-a24c075eeefd",
        "geolocation": {
            "lat": 45.78146599999999,
            "lng": 15.9954382
        },
        "found": 18,
        "lvl3-poly": "relation/226224"
    },
    {
        "name": "Novi Zagreb - Zapad Blato",
        "id": "e50c469a-e1e1-4a8f-bb3e-69b95a80d234",
        "geolocation": {
            "lat": 45.7620089,
            "lng": 15.9190856
        },
        "found": 51,
        "lvl3-poly": "relation/226224"
    },
    {
        "name": "Novi Zagreb - Zapad Botinec",
        "id": "247f1045-5ccd-49f8-88ca-84fe0ff10f01",
        "geolocation": {
            "lat": 45.7553031,
            "lng": 15.9355392
        },
        "found": 2,
        "lvl3-poly": "relation/226224"
    },
    {
        "name": "Novi Zagreb - Zapad Donji Čehi",
        "id": "94b63b62-80e2-41d2-8a90-339ed8280b37",
        "geolocation": {
            "lat": 45.7397067,
            "lng": 15.960624
        },
        "found": 7,
        "lvl3-poly": "relation/226224"
    },
    {
        "name": "Novi Zagreb - Zapad Glogovec",
        "id": "a9418cb4-5347-47d6-afa7-4a365012e66c",
        "geolocation": {
            "lat": 45.8234138,
            "lng": 15.9810432
        },
        "found": 2,
        "lvl3-poly": "relation/226224"
    },
    {
        "name": "Novi Zagreb - Zapad Gornji Čehi",
        "id": "0e1b18ba-18a4-4f24-89c4-00da2caeabed",
        "geolocation": {
            "lat": 45.7441335,
            "lng": 15.9582922
        },
        "found": 23,
        "lvl3-poly": "relation/226224"
    },
    {
        "name": "Novi Zagreb - Zapad Hrašće Turopoljsko",
        "id": "2125371c-393f-4fcb-8c8f-9d4cb42aa8da",
        "geolocation": {
            "lat": 45.72955280000001,
            "lng": 16.0079765
        },
        "found": 13,
        "lvl3-poly": "relation/226224"
    },
    {
        "name": "Novi Zagreb - Zapad Hrvatski Leskovac",
        "id": "80a62ec0-4e4c-4ad8-b75c-828cedac8dfd",
        "geolocation": {
            "lat": 45.7437832,
            "lng": 15.8905004
        },
        "found": 4,
        "lvl3-poly": "relation/226224"
    },
    {
        "name": "Novi Zagreb - Zapad Kajzerica",
        "id": "e87a6a57-eca4-4ea0-a31c-54ed9f5bd9fc",
        "geolocation": {
            "lat": 45.7818431,
            "lng": 15.9588391
        },
        "found": 30,
        "lvl3-poly": "relation/226224"
    },
    {
        "name": "Novi Zagreb - Zapad Lanište",
        "id": "ecf48c31-6111-4ac6-af83-24cb9b9b8355",
        "geolocation": {
            "lat": 45.7737417,
            "lng": 15.9475157
        },
        "found": 36,
        "lvl3-poly": "relation/226224"
    },
    {
        "name": "Novi Zagreb - Zapad Lučko",
        "id": "b126f954-a085-47f0-bb09-14100b516eba",
        "geolocation": {
            "lat": 45.7669875,
            "lng": 15.8827907
        },
        "found": 32,
        "lvl3-poly": "relation/226224"
    },
    {
        "name": "Novi Zagreb - Zapad Novi Zagreb",
        "id": "24e9f3b6-a669-446d-b585-62478cee49e1",
        "geolocation": {
            "lat": 45.7775161,
            "lng": 15.9802708
        },
        "found": 1,
        "lvl3-poly": "relation/226224"
    },
    {
        "name": "Novi Zagreb - Zapad Odra",
        "id": "7a0eb1a4-fe51-4498-a4cb-53d364147d69",
        "geolocation": {
            "lat": 45.7299401,
            "lng": 15.9923657
        },
        "found": 16,
        "lvl3-poly": "relation/226224"
    },
    {
        "name": "Novi Zagreb - Zapad Otočec",
        "id": "62dbc968-1f09-4608-9e87-cfcc1b74d937",
        "geolocation": {
            "lat": 45.7614488,
            "lng": 15.9537462
        },
        "found": 4,
        "lvl3-poly": "relation/226224"
    },
    {
        "name": "Novi Zagreb - Zapad Otok",
        "id": "584a7f1e-6480-48bf-87af-acb7b1a82164",
        "geolocation": {
            "lat": 45.7615596,
            "lng": 15.9770888
        },
        "found": 17,
        "lvl3-poly": "relation/226224"
    },
    {
        "name": "Novi Zagreb - Zapad Podbrežje",
        "id": "57881e70-0b76-4884-aa8b-fb8aac2741da",
        "geolocation": {
            "lat": 45.76740299999999,
            "lng": 15.979462
        },
        "found": 5,
        "lvl3-poly": "relation/226224"
    },
    {
        "name": "Novi Zagreb - Zapad Remetinec",
        "id": "15fdb115-7ce6-4e54-b8f6-ffa8d30da747",
        "geolocation": {
            "lat": 45.7694799,
            "lng": 15.9475872
        },
        "found": 63,
        "lvl3-poly": "relation/226224"
    },
    {
        "name": "Novi Zagreb - Zapad Savski gaj",
        "id": "6934ce22-d255-4c70-88a5-f3c7a30f7ad8",
        "geolocation": {
            "lat": 45.7733094,
            "lng": 15.9547935
        },
        "found": 5,
        "lvl3-poly": "relation/226224"
    },
    {
        "name": "Novi Zagreb - Zapad Siget",
        "id": "b802b3e6-b95a-4b81-9a20-01d564b320bc",
        "geolocation": {
            "lat": 45.7746973,
            "lng": 15.9748238
        },
        "found": 22,
        "lvl3-poly": "relation/226224"
    },
    {
        "name": "Novi Zagreb - Zapad Sveta Klara",
        "id": "78165161-01cf-4afd-8db6-6369bf0ddf03",
        "geolocation": {
            "lat": 45.7612064,
            "lng": 15.9587387
        },
        "found": 108,
        "lvl3-poly": "relation/226224"
    },
    {
        "name": "Novi Zagreb - Zapad Trnsko",
        "id": "220a0de7-8320-452f-9eab-b9a8d52c7073",
        "geolocation": {
            "lat": 45.7731064,
            "lng": 15.9647123
        },
        "found": 21,
        "lvl3-poly": "relation/226224"
    },
    {
        "name": "Novi Zagreb - Zapad Trokut",
        "id": "4a43dd53-d9e4-4da4-9770-0076b5d78d2e",
        "geolocation": {
            "lat": 45.77152359999999,
            "lng": 15.958789
        },
        "found": 4,
        "lvl3-poly": "relation/226224"
    },
    {
        "name": "Peščenica - Žitnjak Borongaj",
        "id": "3703ccb0-1d66-47f4-8123-7d5d52cc207a",
        "geolocation": {
            "lat": 45.8134727,
            "lng": 16.025577
        },
        "found": 25,
        "lvl3-poly": "relation/226224"
    },
    {
        "name": "Peščenica - Žitnjak Borovje",
        "id": "f1b097c1-9263-4434-b375-b40a7aec06ac",
        "geolocation": {
            "lat": 45.7873167,
            "lng": 16.0072206
        },
        "found": 85,
        "lvl3-poly": "relation/226224"
    },
    {
        "name": "Peščenica - Žitnjak Donje Svetice",
        "id": "031ee50e-38e7-4028-be52-8e765d1e3dee",
        "geolocation": {
            "lat": 45.805176,
            "lng": 16.0146189
        },
        "found": 13,
        "lvl3-poly": "relation/226224"
    },
    {
        "name": "Peščenica - Žitnjak Ferenščica",
        "id": "6f0507cb-8b34-4e78-80db-56814ae15f4f",
        "geolocation": {
            "lat": 45.80434,
            "lng": 16.02365
        },
        "found": 12,
        "lvl3-poly": "relation/226224"
    },
    {
        "name": "Peščenica - Žitnjak Folnegovićevo naselje",
        "id": "3d0db286-60d3-47a9-afb6-6d62a653e5ed",
        "geolocation": {
            "lat": 45.7918797,
            "lng": 16.0025934
        },
        "found": 19,
        "lvl3-poly": "relation/226224"
    },
    {
        "name": "Peščenica - Žitnjak Ivanja Reka",
        "id": "2555d487-e6a6-4fa0-8c21-faca0e2fa5da",
        "geolocation": {
            "lat": 45.7988223,
            "lng": 16.1176094
        },
        "found": 4,
        "lvl3-poly": "relation/226224"
    },
    {
        "name": "Peščenica - Žitnjak Kozari bok",
        "id": "6d86f322-8606-4ef3-ace4-c092cfd1e678",
        "geolocation": {
            "lat": 45.7953141,
            "lng": 16.047247
        },
        "found": 5,
        "lvl3-poly": "relation/226224"
    },
    {
        "name": "Peščenica - Žitnjak Kozari put",
        "id": "3420a5eb-81d2-4f87-95e0-cb0beffc83b1",
        "geolocation": {
            "lat": 45.791816,
            "lng": 16.0543181
        },
        "found": 3,
        "lvl3-poly": "relation/226224"
    },
    {
        "name": "Peščenica - Žitnjak Peščenica",
        "id": "febf22ce-7b58-46ca-ad20-1f7120a02aec",
        "geolocation": {
            "lat": 45.8101949,
            "lng": 16.0085122
        },
        "found": 35,
        "lvl3-poly": "relation/226224"
    },
    {
        "name": "Peščenica - Žitnjak Resnik",
        "id": "01bb8add-738a-4dd6-9d48-0d2c96d5e428",
        "geolocation": {
            "lat": 45.8029214,
            "lng": 16.0815105
        },
        "found": 4,
        "lvl3-poly": "relation/226224"
    },
    {
        "name": "Peščenica - Žitnjak Savica - Šanci",
        "id": "5fe0de31-b031-4876-a860-07803c0d1f5d",
        "geolocation": {
            "lat": 45.7869106,
            "lng": 16.0292152
        },
        "found": 1,
        "lvl3-poly": "relation/226224"
    },
    {
        "name": "Peščenica - Žitnjak Volovčica",
        "id": "925dc75b-e85c-41ab-8a56-ab258e244e83",
        "geolocation": {
            "lat": 45.8105378,
            "lng": 16.0171811
        },
        "found": 26,
        "lvl3-poly": "relation/226224"
    },
    {
        "name": "Peščenica - Žitnjak Vukomerec",
        "id": "ec1bf3bd-d8bd-438d-b829-39f5bc9977b3",
        "geolocation": {
            "lat": 45.8079172,
            "lng": 16.0430031
        },
        "found": 3,
        "lvl3-poly": "relation/226224"
    },
    {
        "name": "Peščenica - Žitnjak Žitnjak",
        "id": "b83dab44-8dd5-4fd9-b95b-65bfe2b178af",
        "geolocation": {
            "lat": 45.7792692,
            "lng": 16.0615958
        },
        "found": 1,
        "lvl3-poly": "relation/226224"
    },
    {
        "name": "Podsljeme Dedići",
        "id": "b0a55ae5-5487-4530-a58d-6edb18397e9d",
        "geolocation": {
            "lat": 45.8441774,
            "lng": 15.9465294
        },
        "found": 9,
        "lvl3-poly": "relation/226224"
    },
    {
        "name": "Podsljeme Gračani",
        "id": "e0c84777-03ba-420a-8f0a-0a7468d7451c",
        "geolocation": {
            "lat": 45.8582781,
            "lng": 15.9718422
        },
        "found": 119,
        "lvl3-poly": "relation/226224"
    },
    {
        "name": "Podsljeme Markuševec",
        "id": "cb759e23-ceba-4846-acda-4e0284cc4e0b",
        "geolocation": {
            "lat": 45.8755078,
            "lng": 16.0153712
        },
        "found": 13,
        "lvl3-poly": "relation/226224"
    },
    {
        "name": "Podsljeme Mlinovi",
        "id": "32d0552b-da8d-4366-bd8a-fe044b1a5b23",
        "geolocation": {
            "lat": 45.8501717,
            "lng": 15.961091
        },
        "found": 26,
        "lvl3-poly": "relation/226224"
    },
    {
        "name": "Podsljeme Sljeme",
        "id": "9cc75c97-1f46-436f-bd65-a3b2dd867e0d",
        "geolocation": {
            "lat": 45.8992885,
            "lng": 15.9477552
        },
        "found": 1,
        "lvl3-poly": "relation/226224"
    },
    {
        "name": "Podsljeme Šestine",
        "id": "5e375a85-a705-435b-bc83-692bf53c0b23",
        "geolocation": {
            "lat": 45.851966,
            "lng": 15.950208
        },
        "found": 70,
        "lvl3-poly": "relation/226224"
    },
    {
        "name": "Podsljeme Šestinski vrh",
        "id": "2d72aab0-c512-4851-9a9d-3e9b018a0de4",
        "geolocation": {
            "lat": 45.8445603,
            "lng": 15.9531184
        },
        "found": 16,
        "lvl3-poly": "relation/226224"
    },
    {
        "name": "Podsljeme Štefanovec",
        "id": "667f4dc2-5007-419a-b5e9-f928b981e9d7",
        "geolocation": {
            "lat": 45.8757393,
            "lng": 16.0162841
        },
        "found": 1,
        "lvl3-poly": "relation/226224"
    },
    {
        "name": "Podsused - Vrapče Bizek",
        "id": "ddd63758-fed7-4ac0-91d1-a2d5076572da",
        "geolocation": {
            "lat": 45.8252754,
            "lng": 15.8550493
        },
        "found": 3,
        "lvl3-poly": "relation/226224"
    },
    {
        "name": "Podsused - Vrapče Bolfani",
        "id": "d225e307-13c3-4077-83fa-363c975a723d",
        "geolocation": {
            "lat": 45.836675,
            "lng": 15.8916083
        },
        "found": 2,
        "lvl3-poly": "relation/226224"
    },
    {
        "name": "Podsused - Vrapče Borčec",
        "id": "f81c0dc9-4b87-44b3-87dd-74a127e9ebe2",
        "geolocation": {
            "lat": 45.836125,
            "lng": 15.8860066
        },
        "found": 1,
        "lvl3-poly": "relation/226224"
    },
    {
        "name": "Podsused - Vrapče Gajnice",
        "id": "efd81ffc-98f7-40f4-b6fa-8a8888ffcad9",
        "geolocation": {
            "lat": 45.81625349999999,
            "lng": 15.8725938
        },
        "found": 69,
        "lvl3-poly": "relation/226224"
    },
    {
        "name": "Podsused - Vrapče Goljak",
        "id": "071395b2-aad0-4f80-961b-7520745a1944",
        "geolocation": {
            "lat": 45.8217031,
            "lng": 15.9633325
        },
        "found": 1,
        "lvl3-poly": "relation/226224"
    },
    {
        "name": "Podsused - Vrapče Grmoščica",
        "id": "60520852-d6d6-4a28-b87d-84e98c3e790c",
        "geolocation": {
            "lat": 45.81750299999999,
            "lng": 15.9231384
        },
        "found": 2,
        "lvl3-poly": "relation/226224"
    },
    {
        "name": "Podsused - Vrapče Jačkovina",
        "id": "0058d89d-950c-44a0-aed0-8acc0a79e969",
        "geolocation": {
            "lat": 45.8173161,
            "lng": 15.9013106
        },
        "found": 17,
        "lvl3-poly": "relation/226224"
    },
    {
        "name": "Podsused - Vrapče Orešje",
        "id": "7a5c4d55-50d3-407e-9e27-854788e5581d",
        "geolocation": {
            "lat": 45.8284216,
            "lng": 15.8851165
        },
        "found": 1,
        "lvl3-poly": "relation/226224"
    },
    {
        "name": "Podsused - Vrapče Perjavica",
        "id": "07b5ef7f-df4b-4e6b-8275-b65c3ef4f330",
        "geolocation": {
            "lat": 45.8291981,
            "lng": 15.8931481
        },
        "found": 24,
        "lvl3-poly": "relation/226224"
    },
    {
        "name": "Podsused - Vrapče Podsused",
        "id": "5ce99b70-dc8a-44cb-8c3d-1ee1e31eacd4",
        "geolocation": {
            "lat": 45.82188,
            "lng": 15.843591
        },
        "found": 48,
        "lvl3-poly": "relation/226224"
    },
    {
        "name": "Podsused - Vrapče Susedgrad",
        "id": "2e77ccd0-07d9-4525-92ed-7535552faff0",
        "geolocation": {
            "lat": 45.82072609999999,
            "lng": 15.8302693
        },
        "found": 4,
        "lvl3-poly": "relation/226224"
    },
    {
        "name": "Podsused - Vrapče Vrapče",
        "id": "1c1b978e-84ba-47e6-bab9-b801600329e5",
        "geolocation": {
            "lat": 45.82188,
            "lng": 15.843591
        },
        "found": 59,
        "lvl3-poly": "relation/226224"
    },
    {
        "name": "Sesvete Adamovec",
        "id": "cb9bf980-e308-4996-9e48-59af43d3b7e4",
        "geolocation": {
            "lat": 45.9053318,
            "lng": 16.1648265
        },
        "found": 8,
        "lvl3-poly": "relation/226224"
    },
    {
        "name": "Sesvete Brestje",
        "id": "e1d9ff41-0f97-4264-857d-aafc86040659",
        "geolocation": {
            "lat": 45.8308833,
            "lng": 16.0921867
        },
        "found": 24,
        "lvl3-poly": "relation/226224"
    },
    {
        "name": "Sesvete Brestovčina",
        "id": "32d567bf-e16f-4830-8e77-c10b715a1614",
        "geolocation": {
            "lat": 45.82724169999999,
            "lng": 16.1112533
        },
        "found": 1,
        "lvl3-poly": "relation/226224"
    },
    {
        "name": "Sesvete Dobrodol",
        "id": "c316d256-926c-4e5b-88ec-67e62b46ba3f",
        "geolocation": {
            "lat": 45.8595438,
            "lng": 16.097526
        },
        "found": 4,
        "lvl3-poly": "relation/226224"
    },
    {
        "name": "Sesvete Drenčec",
        "id": "abb00c25-328c-43e9-9d61-e61dfbb6b8e7",
        "geolocation": {
            "lat": 45.838416,
            "lng": 16.20445
        },
        "found": 1,
        "lvl3-poly": "relation/226224"
    },
    {
        "name": "Sesvete Dugava",
        "id": "4065147e-b80d-4d86-ac11-4621c41e0a8e",
        "geolocation": {
            "lat": 45.82724169999999,
            "lng": 16.1112533
        },
        "found": 1,
        "lvl3-poly": "relation/226224"
    },
    {
        "name": "Sesvete Gaišće",
        "id": "c2bcfe70-8b43-4bad-b3dd-2c44ab5985a3",
        "geolocation": {
            "lat": 45.82724169999999,
            "lng": 16.1112533
        },
        "found": 2,
        "lvl3-poly": "relation/226224"
    },
    {
        "name": "Sesvete Iver",
        "id": "ed207f02-1c2e-4837-b1b0-463d13d1a7b0",
        "geolocation": {
            "lat": 45.82724169999999,
            "lng": 16.1112533
        },
        "found": 30,
        "lvl3-poly": "relation/226224"
    },
    {
        "name": "Sesvete Novi Jelkovec",
        "id": "09dd6504-706c-4102-80f9-221acadcbdba",
        "geolocation": {
            "lat": 45.8112602,
            "lng": 16.1075518
        },
        "found": 2,
        "lvl3-poly": "relation/226224"
    },
    {
        "name": "Sesvete Kašina",
        "id": "06faca67-f132-4a4d-ba4b-b988768bbdd2",
        "geolocation": {
            "lat": 45.836823,
            "lng": 16.1091728
        },
        "found": 1,
        "lvl3-poly": "relation/226224"
    },
    {
        "name": "Sesvete Kobiljak",
        "id": "0a212df3-dafa-4c77-bc90-720d2f30535b",
        "geolocation": {
            "lat": 45.825181,
            "lng": 16.151732
        },
        "found": 1,
        "lvl3-poly": "relation/226224"
    },
    {
        "name": "Sesvete Kraljevečki Novaki",
        "id": "6074f346-71c2-4710-b018-2c6caad9543d",
        "geolocation": {
            "lat": 45.8302347,
            "lng": 16.1477268
        },
        "found": 25,
        "lvl3-poly": "relation/226224"
    },
    {
        "name": "Sesvete Markovo polje",
        "id": "f7da3e72-edd1-4104-99c9-fd4822d9a63d",
        "geolocation": {
            "lat": 45.8655746,
            "lng": 16.1126514
        },
        "found": 1,
        "lvl3-poly": "relation/226224"
    },
    {
        "name": "Sesvete Moravče",
        "id": "e9463137-95c5-455f-80ec-8eddfe34871f",
        "geolocation": {
            "lat": 45.9377036,
            "lng": 16.1674936
        },
        "found": 1,
        "lvl3-poly": "relation/226224"
    },
    {
        "name": "Sesvete Planina Gornja",
        "id": "a088afd7-56bd-42da-b0f4-ae792dfc98ad",
        "geolocation": {
            "lat": 45.9393793,
            "lng": 16.0788815
        },
        "found": 1,
        "lvl3-poly": "relation/226224"
    },
    {
        "name": "Sesvete Popovec",
        "id": "dbabfc12-4a4f-4967-a465-7c6bdc570273",
        "geolocation": {
            "lat": 45.84899559999999,
            "lng": 16.1402101
        },
        "found": 4,
        "lvl3-poly": "relation/226224"
    },
    {
        "name": "Sesvete Selčina",
        "id": "785265c9-62af-4543-95f1-e32454ea65a4",
        "geolocation": {
            "lat": 45.8349339,
            "lng": 16.1141337
        },
        "found": 3,
        "lvl3-poly": "relation/226224"
    },
    {
        "name": "Sesvete Sesvete",
        "id": "e88faa22-adbd-4fcd-ae09-9bc35bf2cccc",
        "geolocation": {
            "lat": 45.82724169999999,
            "lng": 16.1112533
        },
        "found": 183,
        "lvl3-poly": "relation/226224"
    },
    {
        "name": "Sesvete Sesvetska sela",
        "id": "c1785dbc-efbb-48e5-8617-3fd15576514c",
        "geolocation": {
            "lat": 45.823721,
            "lng": 16.131891
        },
        "found": 5,
        "lvl3-poly": "relation/226224"
    },
    {
        "name": "Sesvete Sesvetska selnica",
        "id": "b0065578-6fe8-45b9-a043-1ac1fb32f706",
        "geolocation": {
            "lat": 45.8166894,
            "lng": 16.1340432
        },
        "found": 9,
        "lvl3-poly": "relation/226224"
    },
    {
        "name": "Sesvete Sesvetski Kraljevec",
        "id": "d35199c9-164b-432e-b94c-14e66d3e4aaf",
        "geolocation": {
            "lat": 45.8165173,
            "lng": 16.1741503
        },
        "found": 94,
        "lvl3-poly": "relation/226224"
    },
    {
        "name": "Sesvete Sopnica",
        "id": "383968be-24c5-420f-bd17-113165eedc34",
        "geolocation": {
            "lat": 45.8245559,
            "lng": 16.0961088
        },
        "found": 10,
        "lvl3-poly": "relation/226224"
    },
    {
        "name": "Sesvete Vugrovec Donji",
        "id": "998c9575-e15e-4049-95dd-1340c1550e6e",
        "geolocation": {
            "lat": 45.8815134,
            "lng": 16.1086331
        },
        "found": 1,
        "lvl3-poly": "relation/226224"
    },
    {
        "name": "Stenjevec Donje Vrapče",
        "id": "ea584b2c-34af-402d-a659-f30a4520e8d1",
        "geolocation": {
            "lat": 45.8118683,
            "lng": 15.8957538
        },
        "found": 35,
        "lvl3-poly": "relation/226224"
    },
    {
        "name": "Stenjevec Jankomir",
        "id": "6c12fd28-fdae-4240-85fb-5fa9750b232f",
        "geolocation": {
            "lat": 45.8048499,
            "lng": 15.8583376
        },
        "found": 5,
        "lvl3-poly": "relation/226224"
    },
    {
        "name": "Stenjevec Malešnica",
        "id": "d21d319f-1df0-42f4-8eea-8666a5a6f89d",
        "geolocation": {
            "lat": 45.8091304,
            "lng": 15.8967769
        },
        "found": 62,
        "lvl3-poly": "relation/226224"
    },
    {
        "name": "Stenjevec Savska Opatovina",
        "id": "a3e1a84b-f208-4a4b-821e-a3bc7fade749",
        "geolocation": {
            "lat": 45.7955801,
            "lng": 15.8872853
        },
        "found": 1,
        "lvl3-poly": "relation/226224"
    },
    {
        "name": "Stenjevec Stenjevec",
        "id": "ff3f59b4-2870-4ce1-9af3-0a5f1f752efd",
        "geolocation": {
            "lat": 45.8143702,
            "lng": 15.886853
        },
        "found": 232,
        "lvl3-poly": "relation/226224"
    },
    {
        "name": "Stenjevec Špansko",
        "id": "3fd4c0e1-b9db-4506-9f11-4f98070ae563",
        "geolocation": {
            "lat": 45.802023,
            "lng": 15.8963795
        },
        "found": 145,
        "lvl3-poly": "relation/226224"
    },
    {
        "name": "Trešnjevka - Jug Gajevo",
        "id": "58e011bc-0d52-4c61-8cc1-651f9f96c5f9",
        "geolocation": {
            "lat": 45.78949979999999,
            "lng": 15.9342064
        },
        "found": 4,
        "lvl3-poly": "relation/226224"
    },
    {
        "name": "Trešnjevka - Jug Gredice",
        "id": "75f5e4e8-6cf6-4b94-9a6c-18e8f492edfd",
        "geolocation": {
            "lat": 45.7841281,
            "lng": 15.9396259
        },
        "found": 14,
        "lvl3-poly": "relation/226224"
    },
    {
        "name": "Trešnjevka - Jug Jarun",
        "id": "a87a03de-0fbb-4c51-ba0a-8293bf8501fc",
        "geolocation": {
            "lat": 45.7850165,
            "lng": 15.9286065
        },
        "found": 65,
        "lvl3-poly": "relation/226224"
    },
    {
        "name": "Trešnjevka - Jug Knežija",
        "id": "5e9d75e4-eef1-4d7c-a234-b6c57198e2b4",
        "geolocation": {
            "lat": 45.7913115,
            "lng": 15.9471865
        },
        "found": 46,
        "lvl3-poly": "relation/226224"
    },
    {
        "name": "Trešnjevka - Jug Prečko",
        "id": "39f61e71-efdc-4f3b-96fa-89f09c0ebbe1",
        "geolocation": {
            "lat": 45.7907032,
            "lng": 15.9025766
        },
        "found": 33,
        "lvl3-poly": "relation/226224"
    },
    {
        "name": "Trešnjevka - Jug Srednjaci",
        "id": "02c89691-cdf1-47f0-a408-a1be55306423",
        "geolocation": {
            "lat": 45.7916022,
            "lng": 15.938521
        },
        "found": 43,
        "lvl3-poly": "relation/226224"
    },
    {
        "name": "Trešnjevka - Jug Staglišće",
        "id": "25ca294a-ec61-4805-aee0-0296e152db3a",
        "geolocation": {
            "lat": 45.7927642,
            "lng": 15.923938
        },
        "found": 10,
        "lvl3-poly": "relation/226224"
    },
    {
        "name": "Trešnjevka - Jug Vrbani",
        "id": "bc5391b4-bee3-44f9-833d-4bfad85ca18d",
        "geolocation": {
            "lat": 45.7907032,
            "lng": 15.9025766
        },
        "found": 51,
        "lvl3-poly": "relation/226224"
    },
    {
        "name": "Trešnjevka - Sjever Rudeš",
        "id": "9f424b59-18c7-4db5-8efe-17d1e5a49ad5",
        "geolocation": {
            "lat": 45.8002607,
            "lng": 15.9199448
        },
        "found": 106,
        "lvl3-poly": "relation/226224"
    },
    {
        "name": "Trešnjevka - Sjever Trešnjevka",
        "id": "51c2ba1f-9edc-4e9f-8260-9a36db02cff4",
        "geolocation": {
            "lat": 45.7940703,
            "lng": 15.9441752
        },
        "found": 416,
        "lvl3-poly": "relation/226224"
    },
    {
        "name": "Trešnjevka - Sjever Voltino",
        "id": "e8fff21e-9439-4b5f-a1b7-91ceaef13fab",
        "geolocation": {
            "lat": 45.8023084,
            "lng": 15.9257652
        },
        "found": 40,
        "lvl3-poly": "relation/226224"
    },
    {
        "name": "Trnje Cvjetno naselje",
        "id": "12649c1a-d909-48b8-b409-f4ee412107bd",
        "geolocation": {
            "lat": 45.7923739,
            "lng": 15.9645861
        },
        "found": 7,
        "lvl3-poly": "relation/226224"
    },
    {
        "name": "Trnje Kanal",
        "id": "29523dd3-e5f2-405d-bc2f-814865c827f1",
        "geolocation": {
            "lat": 45.80311349999999,
            "lng": 15.9973594
        },
        "found": 11,
        "lvl3-poly": "relation/226224"
    },
    {
        "name": "Trnje Kruge",
        "id": "14064437-118d-4e6a-bb65-c36f27d459c6",
        "geolocation": {
            "lat": 45.798378,
            "lng": 15.9907054
        },
        "found": 7,
        "lvl3-poly": "relation/226224"
    },
    {
        "name": "Trnje Martinovka",
        "id": "61bc3fea-098c-4d1d-b5fa-535de05be579",
        "geolocation": {
            "lat": 45.8020456,
            "lng": 15.9731365
        },
        "found": 6,
        "lvl3-poly": "relation/226224"
    },
    {
        "name": "Trnje Savica",
        "id": "82bc3953-49c9-4fed-bb2a-ec4d697540dd",
        "geolocation": {
            "lat": 45.7908784,
            "lng": 15.9891168
        },
        "found": 22,
        "lvl3-poly": "relation/226224"
    },
    {
        "name": "Trnje Sigečica",
        "id": "cab3181e-b3c8-4df4-a4fc-3e0cfdaccbcb",
        "geolocation": {
            "lat": 45.7996788,
            "lng": 16.0028486
        },
        "found": 19,
        "lvl3-poly": "relation/226224"
    },
    {
        "name": "Trnje Trnje",
        "id": "f8dece61-f263-4a52-8ef9-af953f915276",
        "geolocation": {
            "lat": 45.7949967,
            "lng": 15.978899
        },
        "found": 55,
        "lvl3-poly": "relation/226224"
    },
    {
        "name": "Trnje Vrbik",
        "id": "d66f8356-93da-4a3c-8ec1-695a0873cdab",
        "geolocation": {
            "lat": 45.7954257,
            "lng": 15.9689903
        },
        "found": 14,
        "lvl3-poly": "relation/226224"
    },
    {
        "name": "Zagreb - Okolica Botinec",
        "id": "6e36aac5-a164-47d9-bd33-dc06ae3972dc",
        "geolocation": {
            "lat": 45.7553031,
            "lng": 15.9355392
        },
        "found": 1,
        "lvl3-poly": "relation/226224"
    },
    {
        "name": "Zagreb - Okolica Brebernica",
        "id": "b0a2ecda-3cf0-402f-aa37-c5d0cf2ae903",
        "geolocation": {
            "lat": 45.6676244,
            "lng": 15.891832
        },
        "found": 1,
        "lvl3-poly": "relation/226224"
    },
    {
        "name": "Zagreb - Okolica Brezovica",
        "id": "61e6567a-402b-4fc7-a604-1d24f4e89de8",
        "geolocation": {
            "lat": 45.7292368,
            "lng": 15.9106398
        },
        "found": 1,
        "lvl3-poly": "relation/226224"
    },
    {
        "name": "Zagreb - Okolica Demerje",
        "id": "267c5e96-396d-4ea7-9f58-2c0f742a4f64",
        "geolocation": {
            "lat": 45.7369333,
            "lng": 15.8870628
        },
        "found": 1,
        "lvl3-poly": "relation/226224"
    },
    {
        "name": "Zagreb - Okolica Dumovec",
        "id": "3a6dd0ec-b59a-4b49-83e4-8242d6cab135",
        "geolocation": {
            "lat": 45.811046,
            "lng": 16.1600665
        },
        "found": 1,
        "lvl3-poly": "relation/226224"
    },
    {
        "name": "Zagreb - Okolica Ježdovec",
        "id": "6892de61-0a7a-420f-b68a-cb8034265402",
        "geolocation": {
            "lat": 45.7761106,
            "lng": 15.8455057
        },
        "found": 2,
        "lvl3-poly": "relation/226224"
    },
    {
        "name": "Zagreb - Okolica Odranski Obrež",
        "id": "002b0772-8711-4033-a69d-3911e6370ee7",
        "geolocation": {
            "lat": 45.7168156,
            "lng": 15.9396072
        },
        "found": 1,
        "lvl3-poly": "relation/226224"
    },
    {
        "name": "Zagreb - Okolica Strmec",
        "id": "06ab559c-435c-4a9c-a65d-944d85d4509c",
        "geolocation": {
            "lat": 45.8171753,
            "lng": 15.7897105
        },
        "found": 3,
        "lvl3-poly": "relation/226241"
    },
    {
        "name": "Bale Bale",
        "id": "0ccc0dfe-7602-4a9f-b49a-d75344f8cd09",
        "found": 1,
        "geolocation": {
            "lat": 45.1,
            "lng": 15.2
        },
        "lvl3-poly": "relation/226465"
    },
    {
        "name": "Barban Barban",
        "id": "4b3aab68-95f7-43d9-9301-cd8351e7d357",
        "geolocation": {
            "lat": 45.0645315,
            "lng": 14.0171185
        },
        "found": 63,
        "lvl3-poly": "relation/226351"
    },
    {
        "name": "Barban Glavani",
        "id": "2f354d10-674c-489c-9636-defb26e008f0",
        "geolocation": {
            "lat": 45.0205602,
            "lng": 13.9559706
        },
        "found": 1,
        "lvl3-poly": "relation/226351"
    },
    {
        "name": "Brtonigla Brtonigla",
        "id": "fd1649e1-d51a-4773-a6ab-e2ee849d1a15",
        "geolocation": {
            "lat": 45.3789374,
            "lng": 13.6246759
        },
        "found": 36,
        "lvl3-poly": "relation/226351"
    },
    {
        "name": "Brtonigla Fiorini",
        "id": "5dadb3ac-c109-4739-b54a-6a82f2e48836",
        "geolocation": {
            "lat": 45.3622339,
            "lng": 13.5856452
        },
        "found": 2,
        "lvl3-poly": "relation/226351"
    },
    {
        "name": "Brtonigla Karigador",
        "id": "407ed646-c69f-4eb6-91f7-defd3ad3f549",
        "geolocation": {
            "lat": 45.3607181,
            "lng": 13.551282
        },
        "found": 10,
        "lvl3-poly": "relation/226351"
    },
    {
        "name": "Brtonigla Nova Vas",
        "id": "b5ff0239-f6ba-4fcf-ba5c-a48c93fa41f5",
        "geolocation": {
            "lat": 45.3626477,
            "lng": 13.6408596
        },
        "found": 4,
        "lvl3-poly": "relation/226351"
    },
    {
        "name": "Buje Buje",
        "id": "71b2b1bb-30a6-4b6a-8b1a-085ce71c8760",
        "geolocation": {
            "lat": 45.4082114,
            "lng": 13.6589423
        },
        "found": 82,
        "lvl3-poly": "relation/226351"
    },
    {
        "name": "Buje Kaldanija",
        "id": "27a096b2-3cfc-4162-9030-2fd37c57c418",
        "geolocation": {
            "lat": 45.44172870000001,
            "lng": 13.6313465
        },
        "found": 1,
        "lvl3-poly": "relation/226351"
    },
    {
        "name": "Buje Kaštel",
        "id": "53c5ff21-548a-4b7b-8cb6-1450ff20c6d7",
        "geolocation": {
            "lat": 45.432789,
            "lng": 13.6667344
        },
        "found": 32,
        "lvl3-poly": "relation/226351"
    },
    {
        "name": "Buje Krasica",
        "id": "c38220b9-f12e-4a5f-bafc-d4830e036a19",
        "geolocation": {
            "lat": 45.3836941,
            "lng": 13.6968992
        },
        "found": 1,
        "lvl3-poly": "relation/226351"
    },
    {
        "name": "Buje Plovanija",
        "id": "a2d34954-5168-4ba3-85f2-ecd621e30d3b",
        "geolocation": {
            "lat": 45.4509996,
            "lng": 13.6378586
        },
        "found": 3,
        "lvl3-poly": "relation/226351"
    },
    {
        "name": "Buzet Buzet",
        "id": "9b24519b-3d91-40f9-9a35-2ee0d2d650e3",
        "geolocation": {
            "lat": 45.4075606,
            "lng": 13.9651276
        },
        "found": 1,
        "lvl3-poly": "relation/226351"
    },
    {
        "name": "Cerovlje Pagubice",
        "id": "de461088-c152-4781-905d-1789e1e71d28",
        "geolocation": {
            "lat": 45.29732810000001,
            "lng": 13.9914478
        },
        "found": 1,
        "lvl3-poly": "relation/226351"
    },
    {
        "name": "Fažana Fažana",
        "id": "2e2b689f-c551-42ab-b793-409d5d7bb1f1",
        "geolocation": {
            "lat": 44.928039,
            "lng": 13.8042445
        },
        "found": 247,
        "lvl3-poly": "relation/226351"
    },
    {
        "name": "Fažana Valbandon",
        "id": "fdf03ddf-3302-41fe-98c9-9911030f6099",
        "geolocation": {
            "lat": 44.918814,
            "lng": 13.81361
        },
        "found": 150,
        "lvl3-poly": "relation/226351"
    },
    {
        "name": "Funtana Funtana",
        "id": "a549dde0-128a-4cfa-929b-bcbc15931ac5",
        "geolocation": {
            "lat": 45.1752258,
            "lng": 13.605718
        },
        "found": 31,
        "lvl3-poly": "relation/226351"
    },
    {
        "name": "Grožnjan Antonci",
        "id": "9c95f58f-0b5b-44b1-aa18-cd7ecba4d59c",
        "geolocation": {
            "lat": 45.366958,
            "lng": 13.7878677
        },
        "found": 1,
        "lvl3-poly": "relation/226351"
    },
    {
        "name": "Kanfanar Kanfanar",
        "id": "0d699a79-05e9-452a-af81-cd202062ed6f",
        "geolocation": {
            "lat": 45.1231315,
            "lng": 13.839013
        },
        "found": 63,
        "lvl3-poly": "relation/226351"
    },
    {
        "name": "Kanfanar Putini",
        "id": "08dc9e46-dea8-4b7a-a348-79f3b1de3460",
        "geolocation": {
            "lat": 45.1075707,
            "lng": 13.7413296
        },
        "found": 2,
        "lvl3-poly": "relation/226351"
    },
    {
        "name": "Kaštelir-Labinci Kaštelir",
        "id": "d479ec50-97d9-497a-b78d-f4f8fe552e95",
        "geolocation": {
            "lat": 45.3037535,
            "lng": 13.6893388
        },
        "found": 1,
        "lvl3-poly": "relation/226351"
    },
    {
        "name": "Kršan Plomin",
        "id": "3c2fffbc-46f8-4b8b-81c1-5fccf92bf7cf",
        "geolocation": {
            "lat": 45.1376674,
            "lng": 14.1801411
        },
        "found": 3,
        "lvl3-poly": "relation/226351"
    },
    {
        "name": "Kršan Plomin Luka",
        "id": "3795b4ac-6f02-4f01-a7bc-17a192c99100",
        "geolocation": {
            "lat": 45.13540460000001,
            "lng": 14.1742076
        },
        "found": 19,
        "lvl3-poly": "relation/226351"
    },
    {
        "name": "Kršan Polje Čepić",
        "id": "3faf938f-e31c-4818-a947-8800356df564",
        "geolocation": {
            "lat": 45.1994153,
            "lng": 14.1303305
        },
        "found": 3,
        "lvl3-poly": "relation/226351"
    },
    {
        "name": "Labin Labin",
        "id": "3259bb1e-3c3c-43a9-9881-5bbb98c7f252",
        "geolocation": {
            "lat": 45.091589,
            "lng": 14.1238049
        },
        "found": 272,
        "lvl3-poly": "relation/226351"
    },
    {
        "name": "Labin Rabac",
        "id": "4019cf48-1a65-46e9-97a0-879488014a84",
        "geolocation": {
            "lat": 45.0781668,
            "lng": 14.1617033
        },
        "found": 55,
        "lvl3-poly": "relation/226351"
    },
    {
        "name": "Lanišće Vodice",
        "id": "3a4caa8c-bb73-46d6-a29f-4d70eebb344e",
        "geolocation": {
            "lat": 45.48357,
            "lng": 14.0542354
        },
        "found": 43,
        "lvl3-poly": "relation/226351"
    },
    {
        "name": "Ližnjan Jadreški",
        "id": "164878ec-a5dc-4af7-97c9-d6137b8206c5",
        "geolocation": {
            "lat": 44.8681793,
            "lng": 13.9171706
        },
        "found": 8,
        "lvl3-poly": "relation/226351"
    },
    {
        "name": "Ližnjan Ližnjan",
        "id": "74852703-364b-421f-a7db-34a8217b9151",
        "geolocation": {
            "lat": 44.8285401,
            "lng": 13.9563987
        },
        "found": 195,
        "lvl3-poly": "relation/226351"
    },
    {
        "name": "Ližnjan Šišan",
        "id": "aa4ffef7-5900-4c32-aed8-11a7d479c703",
        "geolocation": {
            "lat": 44.8530012,
            "lng": 13.9417075
        },
        "found": 18,
        "lvl3-poly": "relation/226351"
    },
    {
        "name": "Ližnjan Valtura",
        "id": "b9891b49-a7d9-4aba-8cda-47f14b2ebe4b",
        "geolocation": {
            "lat": 44.9048561,
            "lng": 13.9574423
        },
        "found": 5,
        "lvl3-poly": "relation/226351"
    },
    {
        "name": "Marčana Duga Uvala",
        "id": "cc2a36f1-60f7-411e-90ce-6fca02beb9ae",
        "geolocation": {
            "lat": 44.9232033,
            "lng": 14.0258826
        },
        "found": 16,
        "lvl3-poly": "relation/226351"
    },
    {
        "name": "Marčana Krnica",
        "id": "87b7b70d-3cbd-4c64-b5df-7e6418837336",
        "geolocation": {
            "lat": 44.9727211,
            "lng": 14.0174572
        },
        "found": 6,
        "lvl3-poly": "relation/226351"
    },
    {
        "name": "Marčana Marčana",
        "id": "ecb77a56-dabf-40b6-95a9-43cd4fb975c6",
        "geolocation": {
            "lat": 44.9565719,
            "lng": 13.9551077
        },
        "found": 3,
        "lvl3-poly": "relation/226351"
    },
    {
        "name": "Marčana Pavićini",
        "id": "37313a27-bd28-410a-8156-78cc8dd78f52",
        "geolocation": {
            "lat": 44.9281113,
            "lng": 13.9994367
        },
        "found": 11,
        "lvl3-poly": "relation/226351"
    },
    {
        "name": "Medulin Banjole",
        "id": "682d3d05-038d-479e-a8b8-7f0642d4886f",
        "geolocation": {
            "lat": 44.8233909,
            "lng": 13.866065
        },
        "found": 288,
        "lvl3-poly": "relation/226351"
    },
    {
        "name": "Medulin Medulin",
        "id": "f60a2f55-16b3-4a5c-b813-bbdfcdda3514",
        "geolocation": {
            "lat": 44.8217171,
            "lng": 13.936865
        },
        "found": 500,
        "lvl3-poly": "relation/226351"
    },
    {
        "name": "Medulin Pješčana Uvala",
        "id": "91f2b981-78f1-48ad-9a6d-78d1f5ca1385",
        "geolocation": {
            "lat": 44.8367951,
            "lng": 13.849057
        },
        "found": 216,
        "lvl3-poly": "relation/226351"
    },
    {
        "name": "Medulin Pomer",
        "id": "5a0e0d24-e0d0-4b25-a0e9-30274ae4ca58",
        "geolocation": {
            "lat": 44.8238368,
            "lng": 13.8956818
        },
        "found": 47,
        "lvl3-poly": "relation/226351"
    },
    {
        "name": "Medulin Premantura",
        "id": "4830700e-1ca6-4e8d-91b5-4ccd7bbc5ea5",
        "geolocation": {
            "lat": 44.8031486,
            "lng": 13.9126786
        },
        "found": 185,
        "lvl3-poly": "relation/226351"
    },
    {
        "name": "Medulin Valbonaša",
        "id": "c9b9d938-2de7-477b-9365-413af04b4f8b",
        "geolocation": {
            "lat": 44.8408023,
            "lng": 13.8721079
        },
        "found": 1,
        "lvl3-poly": "relation/226351"
    },
    {
        "name": "Medulin Vinkuran",
        "id": "5276b0d9-4b5f-462c-baaf-c23062b80083",
        "geolocation": {
            "lat": 44.83503049999999,
            "lng": 13.8657301
        },
        "found": 49,
        "lvl3-poly": "relation/226351"
    },
    {
        "name": "Motovun Motovun",
        "id": "9e17ebe0-4ece-419c-bba4-91c5f144fbd4",
        "geolocation": {
            "lat": 45.3359506,
            "lng": 13.8278605
        },
        "found": 8,
        "lvl3-poly": "relation/226351"
    },
    {
        "name": "Novigrad Bužinija",
        "id": "6096a780-f488-44d5-b183-b23223a1f522",
        "geolocation": {
            "lat": 45.3430448,
            "lng": 13.5871649
        },
        "found": 20,
        "lvl3-poly": "relation/226351"
    },
    {
        "name": "Novigrad Dajla",
        "id": "5c8a4eba-0dfe-4c37-bdb0-c51d8a744c69",
        "geolocation": {
            "lat": 45.3516323,
            "lng": 13.5462777
        },
        "found": 9,
        "lvl3-poly": "relation/226351"
    },
    {
        "name": "Novigrad Mareda",
        "id": "35bfbd56-ac90-427b-8f13-ee4b84ddb6ef",
        "geolocation": {
            "lat": 45.3374259,
            "lng": 13.5414128
        },
        "found": 10,
        "lvl3-poly": "relation/226351"
    },
    {
        "name": "Novigrad Novigrad",
        "id": "fd23f453-287a-47b6-b4cc-e33a52d0c49f",
        "geolocation": {
            "lat": 45.3156571,
            "lng": 13.5619471
        },
        "found": 462,
        "lvl3-poly": "relation/226351"
    },
    {
        "name": "Oprtalj Oprtalj",
        "id": "41075209-fad0-4a19-ae18-771e124e5951",
        "geolocation": {
            "lat": 45.3819854,
            "lng": 13.8242022
        },
        "found": 2,
        "lvl3-poly": "relation/226351"
    },
    {
        "name": "Oprtalj Sveta Lucija",
        "id": "e9c30622-7aa0-4f1c-a11a-3e0216271097",
        "geolocation": {
            "lat": 45.3889833,
            "lng": 13.8204372
        },
        "found": 1,
        "lvl3-poly": "relation/226351"
    },
    {
        "name": "Pazin Kaštel",
        "id": "5c130c7c-5ded-4edd-9158-243c5d70e2e7",
        "geolocation": {
            "lat": 45.2402858,
            "lng": 13.9305712
        },
        "found": 5,
        "lvl3-poly": "relation/226351"
    },
    {
        "name": "Pazin Stari Pazin",
        "id": "e641c56a-ae9a-43a8-8d93-d3bde08b0131",
        "geolocation": {
            "lat": 45.23612809999999,
            "lng": 13.9238621
        },
        "found": 20,
        "lvl3-poly": "relation/226351"
    },
    {
        "name": "Pazin Zidarići",
        "id": "0ac97663-3eeb-45c8-b7bd-388500882097",
        "geolocation": {
            "lat": 45.242523,
            "lng": 13.9492364
        },
        "found": 1,
        "lvl3-poly": "relation/226351"
    },
    {
        "name": "Pazin - Okolica Beram",
        "id": "31e7e839-f658-4fae-8bd9-4f1081da5ba8",
        "geolocation": {
            "lat": 45.2525897,
            "lng": 13.8998861
        },
        "found": 1,
        "lvl3-poly": "relation/226351"
    },
    {
        "name": "Poreč Antonci",
        "id": "d413eea5-dd7a-4f81-9bfa-ac9aaf9b5f20",
        "geolocation": {
            "lat": 45.2395414,
            "lng": 13.6436803
        },
        "found": 8,
        "lvl3-poly": "relation/226351"
    },
    {
        "name": "Poreč Baderna",
        "id": "436fdb28-a98b-481a-be81-e4fdd8a7254e",
        "geolocation": {
            "lat": 45.2128671,
            "lng": 13.7535386
        },
        "found": 1,
        "lvl3-poly": "relation/226351"
    },
    {
        "name": "Poreč Buići",
        "id": "ce1800c0-245f-4841-b26a-d5264b6d0749",
        "geolocation": {
            "lat": 45.2159324,
            "lng": 13.6650565
        },
        "found": 4,
        "lvl3-poly": "relation/226351"
    },
    {
        "name": "Poreč Cancini",
        "id": "026f29d7-4ca2-44c8-b9f7-cc55e33172b3",
        "geolocation": {
            "lat": 45.26695730000001,
            "lng": 13.6296781
        },
        "found": 1,
        "lvl3-poly": "relation/226351"
    },
    {
        "name": "Poreč Červar-Porat",
        "id": "206bb908-4ca0-470d-ac88-2f2a015dc8cb",
        "geolocation": {
            "lat": 45.2739623,
            "lng": 13.598826
        },
        "found": 37,
        "lvl3-poly": "relation/226351"
    },
    {
        "name": "Poreč Frata",
        "id": "2334d209-d928-4204-878b-e0f87dc2fc76",
        "geolocation": {
            "lat": 45.2908994,
            "lng": 13.6259307
        },
        "found": 35,
        "lvl3-poly": "relation/226351"
    },
    {
        "name": "Poreč Fuškulin",
        "id": "242521c4-9489-483e-920c-5290cd00c1f9",
        "geolocation": {
            "lat": 45.1822343,
            "lng": 13.6409685
        },
        "found": 2,
        "lvl3-poly": "relation/226351"
    },
    {
        "name": "Poreč Garbina",
        "id": "55daf56a-3873-45e0-a679-d3130b61fbbd",
        "geolocation": {
            "lat": 45.2169518,
            "lng": 13.6143322
        },
        "found": 2,
        "lvl3-poly": "relation/226351"
    },
    {
        "name": "Poreč Gedići",
        "id": "3558ce0a-8f6b-4bb1-af5d-b22f5b6038a5",
        "geolocation": {
            "lat": 45.2738952,
            "lng": 13.6544261
        },
        "found": 2,
        "lvl3-poly": "relation/226351"
    },
    {
        "name": "Poreč Kukci",
        "id": "c996d4ff-3e16-46ac-921f-aa8e97edb7ab",
        "geolocation": {
            "lat": 45.26109899999999,
            "lng": 13.6259282
        },
        "found": 2,
        "lvl3-poly": "relation/226351"
    },
    {
        "name": "Poreč Ladrovići",
        "id": "4be23400-d5ba-4c56-8391-7dd7ec26ff8d",
        "geolocation": {
            "lat": 45.21108419999999,
            "lng": 13.7047628
        },
        "found": 15,
        "lvl3-poly": "relation/226351"
    },
    {
        "name": "Poreč Mihatovići",
        "id": "758dfed7-2ad7-4eda-837b-fc40c09fba06",
        "geolocation": {
            "lat": 45.2636941,
            "lng": 13.6461058
        },
        "found": 4,
        "lvl3-poly": "relation/226351"
    },
    {
        "name": "Poreč Mugeba",
        "id": "523db4e3-5c4b-430d-a670-2856024df52c",
        "geolocation": {
            "lat": 45.1926311,
            "lng": 13.6207629
        },
        "found": 1,
        "lvl3-poly": "relation/226351"
    },
    {
        "name": "Poreč Mušalež",
        "id": "78a73938-393b-49af-8f87-c232fd0677ca",
        "geolocation": {
            "lat": 45.2124696,
            "lng": 13.6461123
        },
        "found": 3,
        "lvl3-poly": "relation/226351"
    },
    {
        "name": "Poreč Nova Vas",
        "id": "6f1b3f82-99ff-49ff-868f-9d1675717906",
        "geolocation": {
            "lat": 45.2633462,
            "lng": 13.6601673
        },
        "found": 16,
        "lvl3-poly": "relation/226351"
    },
    {
        "name": "Poreč Perci",
        "id": "06b02bf6-0809-4c7d-bfa1-03c08be44462",
        "geolocation": {
            "lat": 45.29380889999999,
            "lng": 13.6435702
        },
        "found": 2,
        "lvl3-poly": "relation/226351"
    },
    {
        "name": "Poreč Poreč",
        "id": "65d23962-8f62-4754-8349-f545cb1c6c33",
        "geolocation": {
            "lat": 45.2268187,
            "lng": 13.5944023
        },
        "found": 500,
        "lvl3-poly": "relation/226351"
    },
    {
        "name": "Poreč Radmani",
        "id": "1cc7ec2c-97e2-4103-b1f8-53262cabba49",
        "geolocation": {
            "lat": 45.2018259,
            "lng": 13.6835853
        },
        "found": 1,
        "lvl3-poly": "relation/226351"
    },
    {
        "name": "Poreč Starići",
        "id": "04665acc-52cf-4a03-bc99-97940555a096",
        "geolocation": {
            "lat": 45.1904873,
            "lng": 13.6585707
        },
        "found": 4,
        "lvl3-poly": "relation/226351"
    },
    {
        "name": "Poreč Stranići kod Nove Vasi",
        "id": "435f803b-0884-4182-b24a-de9ff08556da",
        "geolocation": {
            "lat": 45.2644908,
            "lng": 13.6388111
        },
        "found": 3,
        "lvl3-poly": "relation/226351"
    },
    {
        "name": "Poreč Tar",
        "id": "02b1da8f-0b34-4b98-a925-2798a1fb1718",
        "geolocation": {
            "lat": 45.3010931,
            "lng": 13.6257418
        },
        "found": 14,
        "lvl3-poly": "relation/226351"
    },
    {
        "name": "Poreč Vabriga",
        "id": "e45ccf65-8f6a-411b-8e54-0608af1bc8f7",
        "geolocation": {
            "lat": 45.2926774,
            "lng": 13.6152067
        },
        "found": 5,
        "lvl3-poly": "relation/226351"
    },
    {
        "name": "Poreč Vrvari",
        "id": "d5246372-ad52-4ca5-9223-7c8523575eed",
        "geolocation": {
            "lat": 45.2239267,
            "lng": 13.6370565
        },
        "found": 2,
        "lvl3-poly": "relation/226351"
    },
    {
        "name": "Poreč Žbandaj",
        "id": "e32b4ad1-ebd5-44b5-9b25-ebff5b8c6475",
        "geolocation": {
            "lat": 45.2095704,
            "lng": 13.683743
        },
        "found": 46,
        "lvl3-poly": "relation/226351"
    },
    {
        "name": "Pula Arsenal",
        "id": "dd575ac2-dcc1-461a-b1d4-bd49a56026b3",
        "geolocation": {
            "lat": 44.8666232,
            "lng": 13.8495788
        },
        "found": 6,
        "lvl3-poly": "relation/226351"
    },
    {
        "name": "Pula Busoler",
        "id": "d48ca5fe-3d68-4aee-9dea-c9a123b56e7e",
        "geolocation": {
            "lat": 44.8665013,
            "lng": 13.8795707
        },
        "found": 34,
        "lvl3-poly": "relation/226351"
    },
    {
        "name": "Pula Centar",
        "id": "dc194bb8-4280-4301-b55f-1e873a8cc217",
        "geolocation": {
            "lat": 44.8666232,
            "lng": 13.8495788
        },
        "found": 500,
        "lvl3-poly": "relation/226351"
    },
    {
        "name": "Pula Gregovica",
        "id": "e9fd0ef4-a20c-46bb-bb84-11c419ab04ee",
        "geolocation": {
            "lat": 44.8654886,
            "lng": 13.8629259
        },
        "found": 42,
        "lvl3-poly": "relation/226351"
    },
    {
        "name": "Pula Ilirija",
        "id": "044d2944-5fd5-4a65-a01a-e1f78ebecbe4",
        "geolocation": {
            "lat": 44.8666232,
            "lng": 13.8495788
        },
        "found": 5,
        "lvl3-poly": "relation/226351"
    },
    {
        "name": "Pula Kaštanjer",
        "id": "70b9156a-74d3-4ecf-be7f-7126365b69a5",
        "geolocation": {
            "lat": 44.8686951,
            "lng": 13.8593882
        },
        "found": 85,
        "lvl3-poly": "relation/226351"
    },
    {
        "name": "Pula Monte Magno",
        "id": "ad4bfa8f-ac8f-4e7b-9e27-ec6df0b1a83f",
        "geolocation": {
            "lat": 44.8595412,
            "lng": 13.8667601
        },
        "found": 51,
        "lvl3-poly": "relation/226351"
    },
    {
        "name": "Pula Monte Zaro",
        "id": "18206648-3c23-488b-b6e7-c6341a0d09f2",
        "geolocation": {
            "lat": 44.86207160000001,
            "lng": 13.8422582
        },
        "found": 71,
        "lvl3-poly": "relation/226351"
    },
    {
        "name": "Pula Monteghiro",
        "id": "87ebfe68-3de3-42b3-b9b7-c7e5b76992f2",
        "geolocation": {
            "lat": 44.8810765,
            "lng": 13.8537277
        },
        "found": 1,
        "lvl3-poly": "relation/226351"
    },
    {
        "name": "Pula Monteserpo - Komunal",
        "id": "5cb18e9f-7155-415d-a2b3-d3c0609ea9d7",
        "geolocation": {
            "lat": 44.87427599999999,
            "lng": 13.8837
        },
        "found": 15,
        "lvl3-poly": "relation/226351"
    },
    {
        "name": "Pula Monvidal",
        "id": "3cd81a54-c51d-4e70-a064-817a8ecad47e",
        "geolocation": {
            "lat": 44.8735242,
            "lng": 13.8597616
        },
        "found": 246,
        "lvl3-poly": "relation/226351"
    },
    {
        "name": "Pula Nova Veruda",
        "id": "e1c17266-6585-4d60-aec0-ac0c95f802ef",
        "geolocation": {
            "lat": 44.8514373,
            "lng": 13.8495709
        },
        "found": 145,
        "lvl3-poly": "relation/226351"
    },
    {
        "name": "Pula Stoja",
        "id": "f5c2f527-64a2-417c-89a6-e8759ad32d8f",
        "geolocation": {
            "lat": 44.8605774,
            "lng": 13.821985
        },
        "found": 114,
        "lvl3-poly": "relation/226351"
    },
    {
        "name": "Pula Sv. Polikarp / Sisplac",
        "id": "0f74bd21-aa1c-484b-9c5d-b5bb95365bbf",
        "geolocation": {
            "lat": 44.8627905,
            "lng": 13.834182
        },
        "found": 117,
        "lvl3-poly": "relation/226351"
    },
    {
        "name": "Pula Šijana",
        "id": "8811fe7c-7aef-494b-8de5-598127829ef8",
        "geolocation": {
            "lat": 44.8783723,
            "lng": 13.8613483
        },
        "found": 308,
        "lvl3-poly": "relation/226351"
    },
    {
        "name": "Pula Šikići",
        "id": "032c0a62-5c69-4c89-98be-73b39c15cab0",
        "geolocation": {
            "lat": 44.860181,
            "lng": 13.9002532
        },
        "found": 84,
        "lvl3-poly": "relation/226351"
    },
    {
        "name": "Pula Škatari",
        "id": "12928213-39fb-488a-99ae-1311e5f5fafe",
        "geolocation": {
            "lat": 44.8608331,
            "lng": 13.8966617
        },
        "found": 7,
        "lvl3-poly": "relation/226351"
    },
    {
        "name": "Pula Štinjan",
        "id": "f8a6f5b7-fad3-4f3d-ab08-18d0d343622b",
        "geolocation": {
            "lat": 44.8949664,
            "lng": 13.8166897
        },
        "found": 222,
        "lvl3-poly": "relation/226351"
    },
    {
        "name": "Pula Valdebek",
        "id": "109edc20-9158-4ec0-9b97-2d24c69835a1",
        "geolocation": {
            "lat": 44.8536639,
            "lng": 13.8824783
        },
        "found": 230,
        "lvl3-poly": "relation/226351"
    },
    {
        "name": "Pula Valkane",
        "id": "4f9054fe-c918-4b25-ab38-8a55232cac7b",
        "geolocation": {
            "lat": 44.8584706,
            "lng": 13.8235126
        },
        "found": 10,
        "lvl3-poly": "relation/226351"
    },
    {
        "name": "Pula Valmade",
        "id": "76be3396-6553-4843-bcaf-94ef7127c6cd",
        "geolocation": {
            "lat": 44.8716586,
            "lng": 13.8773109
        },
        "found": 16,
        "lvl3-poly": "relation/226351"
    },
    {
        "name": "Pula Valsaline",
        "id": "d9e2c30c-d266-47fa-8f27-6747a9d2ddee",
        "geolocation": {
            "lat": 44.84961759999999,
            "lng": 13.8365339
        },
        "found": 4,
        "lvl3-poly": "relation/226351"
    },
    {
        "name": "Pula Veli vrh",
        "id": "e954272a-ed47-4ea0-83d9-69961b012a8e",
        "geolocation": {
            "lat": 44.8897357,
            "lng": 13.8542022
        },
        "found": 106,
        "lvl3-poly": "relation/226351"
    },
    {
        "name": "Pula Veruda",
        "id": "a6db468d-cb42-4d26-a881-b80daf99c7d8",
        "geolocation": {
            "lat": 44.8580082,
            "lng": 13.8393825
        },
        "found": 248,
        "lvl3-poly": "relation/226351"
    },
    {
        "name": "Pula Verudela",
        "id": "c4cb2144-6620-4769-abcd-2322ff7a452f",
        "geolocation": {
            "lat": 44.8398701,
            "lng": 13.8365194
        },
        "found": 3,
        "lvl3-poly": "relation/226351"
    },
    {
        "name": "Pula Vidikovac",
        "id": "1886e24d-7a9f-4908-b628-c9e9c9cb5707",
        "geolocation": {
            "lat": 44.8521261,
            "lng": 13.8464269
        },
        "found": 79,
        "lvl3-poly": "relation/226351"
    },
    {
        "name": "Raša Drenje",
        "id": "2419b6c5-c834-4b32-abdb-ffffff828c42",
        "geolocation": {
            "lat": 45.0159404,
            "lng": 14.1500996
        },
        "found": 5,
        "lvl3-poly": "relation/226351"
    },
    {
        "name": "Raša Raša",
        "id": "09203576-f83b-4197-843a-7f808f4bdab4",
        "found": 1,
        "geolocation": {
            "lat": 45.0804254,
            "lng": 14.0845863
        },
        "lvl3-poly": "relation/226351"
    },
    {
        "name": "Raša Ravni",
        "id": "69ae0692-24dd-408c-9a5a-8db18ce3018e",
        "found": 3,
        "geolocation": {
            "lat": 44.9997974,
            "lng": 14.1632723
        },
        "lvl3-poly": "relation/226351"
    },
    {
        "name": "Rovinj Rovinj",
        "id": "765ef423-30a9-4c34-8e28-4756bb27d08c",
        "geolocation": {
            "lat": 45.0811661,
            "lng": 13.6387067
        },
        "found": 500,
        "lvl3-poly": "relation/226351"
    },
    {
        "name": "Rovinj Rovinjsko Selo",
        "id": "6e48f2f7-4bbe-419b-a6c5-0797edbf108b",
        "geolocation": {
            "lat": 45.1081198,
            "lng": 13.7137108
        },
        "found": 23,
        "lvl3-poly": "relation/226351"
    },
    {
        "name": "Sveta Nedelja Šumber",
        "id": "e8705a2a-b4e8-450d-8e07-533e32bda5bc",
        "geolocation": {
            "lat": 45.1599255,
            "lng": 14.0972362
        },
        "found": 1,
        "lvl3-poly": "relation/226351"
    },
    {
        "name": "Sveta Nedelja Vrećari",
        "id": "5d7839fd-0a2d-4fd9-984d-193a45d75cd6",
        "geolocation": {
            "lat": 45.1278687,
            "lng": 14.1111203
        },
        "found": 2,
        "lvl3-poly": "relation/226351"
    },
    {
        "name": "Sveti Lovreč Radići",
        "id": "97fe7d56-d045-475b-b900-0d56580274ac",
        "geolocation": {
            "lat": 45.1888199,
            "lng": 13.7743917
        },
        "found": 1,
        "lvl3-poly": "relation/226351"
    },
    {
        "name": "Sveti Lovreč Sveti Lovreč",
        "id": "6a221c99-70d1-4639-a812-974a3bd909ec",
        "geolocation": {
            "lat": 45.17619639999999,
            "lng": 13.7442776
        },
        "found": 1,
        "lvl3-poly": "relation/226351"
    },
    {
        "name": "Svetvinčenat Svetvinčenat",
        "id": "0a361c29-ca32-4953-891b-ef6a12b2230f",
        "geolocation": {
            "lat": 45.0881811,
            "lng": 13.8818032
        },
        "found": 1,
        "lvl3-poly": "relation/226351"
    },
    {
        "name": "Umag Babići",
        "id": "30a5f0a2-68d8-4845-a227-5f37b2a695ee",
        "geolocation": {
            "lat": 45.39143,
            "lng": 13.5582231
        },
        "found": 1,
        "lvl3-poly": "relation/226351"
    },
    {
        "name": "Umag Bašanija",
        "id": "8d45e333-bbc6-4d25-886b-d0e4720e0d4b",
        "geolocation": {
            "lat": 45.4854182,
            "lng": 13.4966578
        },
        "found": 33,
        "lvl3-poly": "relation/226351"
    },
    {
        "name": "Umag Crveni Vrh",
        "id": "7a6df7f1-5559-408d-a327-e6f7aa454728",
        "geolocation": {
            "lat": 45.4907168,
            "lng": 13.5388432
        },
        "found": 26,
        "lvl3-poly": "relation/226351"
    },
    {
        "name": "Umag Čepljani",
        "id": "4dfc93f3-dfda-4768-b168-3d4336001ef4",
        "geolocation": {
            "lat": 45.4034453,
            "lng": 13.5801777
        },
        "found": 1,
        "lvl3-poly": "relation/226351"
    },
    {
        "name": "Umag Finida",
        "id": "c7f15f9a-bd52-4a84-897d-3799413bb560",
        "geolocation": {
            "lat": 45.4269285,
            "lng": 13.5449075
        },
        "found": 23,
        "lvl3-poly": "relation/226351"
    },
    {
        "name": "Umag Lovrečica",
        "id": "629ad431-d872-44d1-b5bb-75f1f882bfe1",
        "geolocation": {
            "lat": 45.3827722,
            "lng": 13.5378958
        },
        "found": 159,
        "lvl3-poly": "relation/226351"
    },
    {
        "name": "Umag Monterol",
        "id": "bd6c3a66-b11d-4b06-a48c-b82f700f6543",
        "geolocation": {
            "lat": 45.4530894,
            "lng": 13.5234942
        },
        "found": 2,
        "lvl3-poly": "relation/226351"
    },
    {
        "name": "Umag Murine",
        "id": "1c58b880-b0bb-45a9-a272-931411b8ce5e",
        "geolocation": {
            "lat": 45.4475062,
            "lng": 13.5355875
        },
        "found": 22,
        "lvl3-poly": "relation/226351"
    },
    {
        "name": "Umag Petrovija",
        "id": "06af876a-db3a-4e8f-aa7b-046ce5ace4f3",
        "geolocation": {
            "lat": 45.4231166,
            "lng": 13.5624469
        },
        "found": 1,
        "lvl3-poly": "relation/226351"
    },
    {
        "name": "Umag Savudrija",
        "id": "70c9ac75-c233-4202-b5a4-a0696bc5bbef",
        "geolocation": {
            "lat": 45.49251,
            "lng": 13.5059259
        },
        "found": 76,
        "lvl3-poly": "relation/226351"
    },
    {
        "name": "Umag Seget",
        "id": "794287b9-41f8-4a3c-beb1-72602d998682",
        "geolocation": {
            "lat": 45.4085956,
            "lng": 13.5434207
        },
        "found": 1,
        "lvl3-poly": "relation/226351"
    },
    {
        "name": "Umag Umag",
        "id": "f3d8c4be-e314-4b12-a6cd-75c6f43b6d8c",
        "geolocation": {
            "lat": 45.4372062,
            "lng": 13.5257205
        },
        "found": 500,
        "lvl3-poly": "relation/226351"
    },
    {
        "name": "Umag Valica",
        "id": "f72e6c2d-462a-494e-b0f7-fb4c5d802331",
        "geolocation": {
            "lat": 45.4672577,
            "lng": 13.5714621
        },
        "found": 2,
        "lvl3-poly": "relation/226351"
    },
    {
        "name": "Umag Zambratija",
        "id": "b8a8f3bf-1113-4c03-8486-26df2e7c8985",
        "geolocation": {
            "lat": 45.4760564,
            "lng": 13.5084697
        },
        "found": 46,
        "lvl3-poly": "relation/226351"
    },
    {
        "name": "Višnjan Markovac",
        "id": "fda9aa26-9a99-4825-836f-5191796f3162",
        "geolocation": {
            "lat": 45.2929043,
            "lng": 13.7105254
        },
        "found": 1,
        "lvl3-poly": "relation/226351"
    },
    {
        "name": "Višnjan Višnjan",
        "id": "edc4adb8-a0bc-443d-90fd-066bfd90c81d",
        "geolocation": {
            "lat": 45.2769546,
            "lng": 13.7209844
        },
        "found": 2,
        "lvl3-poly": "relation/226351"
    },
    {
        "name": "Vižinada Vižinada",
        "id": "6868c8d8-8e42-4c51-b176-c936ce8dfec4",
        "geolocation": {
            "lat": 45.330897,
            "lng": 13.7594988
        },
        "found": 1,
        "lvl3-poly": "relation/226351"
    },
    {
        "name": "Vižinada Vranići kod Vižinade",
        "id": "01645d7e-4c2d-4e7c-94ba-67d6c5aaeaae",
        "geolocation": {
            "lat": 45.326847,
            "lng": 13.7107316
        },